wikidata_id,name,country,type,capacity,latitude,longitude,region,source,website
Q124482752,"16 Isabella Street, Wingham",Australia,theatre building,,-31.86915,152.3728,APAC,Wikidata,
Q4650029,ABBAMAIL,Australia,website,,,,APAC,Wikidata,
Q4650214,ABC Online,Australia,website,,,,APAC,Wikidata,
Q4823962,ACMI,Australia,movie theater,,-37.8176,144.969,APAC,Wikidata,
Q4651527,AFL Dream Team,Australia,website,,,,APAC,Wikidata,
Q19360207,AFL Tables,Australia,website,,,,APAC,Wikidata,
Q105550536,AIATSIS Place Thesaurus,Australia,website,,,,APAC,Wikidata,
Q105536068,AIATSIS Subject Thesaurus,Australia,website,,,,APAC,Wikidata,
Q108458138,ARC Grants Search,Australia,website,,,,APAC,Wikidata,
Q17985405,Adelaide City Park,Australia,stadium,5500,-34.851743,138.636493,APAC,Wikidata_Premium,
Q4681712,Adelaide Festival Centre,Australia,theatre building,,-34.9194,138.598,APAC,Wikidata,http://www.adelaidefestivalcentre.com.au/
Q4681798,Adelaide Town Hall,Australia,movie theater,,-34.9261,138.6,APAC,Wikidata,
Q65053849,Adelaide United Training Centre,Australia,venue,,-34.72947222,138.67275,APAC,Wikidata_Clubs,
Q23640734,Albany Town Hall,Australia,movie theater,,-35.02341667,117.88316667,APAC,Wikidata,
Q65044374,"Albert Hall, Brisbane",Australia,theatre building,,-27.4676,153.0236,APAC,Wikidata,
Q113141210,Albury Entertainment Centre,Australia,theatre building,,-36.0792063,146.9171639,APAC,Wikidata,
Q4712859,Albury Sports Ground,Australia,venue,,-36.0831,146.909,APAC,Wikidata_Clubs,
Q109360161,AllHomes,Australia,website,,,,APAC,Wikidata,
Q28219793,Ambassadors Theatre,Australia,theatre building,,-31.9548617,115.8598922,APAC,Wikidata,
Q131624409,Architects of South Australia,Australia,website,,,,APAC,Wikidata,
Q4788893,Arena Joondalup,Australia,stadium,16000,-31.734167,115.763056,APAC,Wikidata_Premium,
Q68908550,AsiaRadioToday,Australia,website,,,,APAC,Wikidata,
Q4811049,Astor Theatre,Australia,movie theater,,-31.934062,115.87211,APAC,Wikidata,
Q7714750,"Astor Theatre, St Kilda",Australia,movie theater,,-37.8581,144.992,APAC,Wikidata,
Q28035295,"Astor Theatre, Surat",Australia,movie theater,,-27.15224,149.07007,APAC,Wikidata,
Q30102906,Athenium Theatre,Australia,theatre building,,-34.868042015,147.582119315,APAC,Wikidata,
Q16335177,Atlas of Living Australia,Australia,website,,,,APAC,Wikidata,
Q4822836,AusStage,Australia,website,,,,APAC,Wikidata,
Q27963963,Ausdroid,Australia,website,,,,APAC,Wikidata,
Q4822839,AustLit,Australia,website,,,,APAC,Wikidata,
Q119575889,Austadiums,Australia,website,,,,APAC,Wikidata,
Q47000894,Austral Picture Theatre,Australia,theatre building,,-37.799611111,144.991583333,APAC,Wikidata,
Q55604500,Australasian Virtual Herbarium,Australia,website,,,,APAC,Wikidata,
Q4823781,Australian Academy of Dramatic Art,Australia,theatre building,,-33.8839,151.209,APAC,Wikidata,http://www.aim.edu.au/courses/acting-theatre
Q4824201,Australian Gamer,Australia,website,,,,APAC,Wikidata,
Q47088042,Australian Honours Search Facility,Australia,website,,,,APAC,Wikidata,
Q4824279,Australian Indigenous HealthInfoNet,Australia,website,,,,APAC,Wikidata,
Q131550981,Australian Libraries Gateway,Australia,website,,,,APAC,Wikidata,
Q4824440,Australian Music Online,Australia,website,,,,APAC,Wikidata,
Q111240493,Australian Plant Collectors and Illustrators website,Australia,website,,,,APAC,Wikidata,
Q108865719,Australian Prints + Printmaking,Australia,website,,,,APAC,Wikidata,
Q4824620,Australian Rock Database,Australia,website,,,,APAC,Wikidata,
Q14935337,Australian School of the Arts,Australia,venue,,-27.56972222,153.23361111,APAC,Wikidata_Clubs,http://www.astalive.com.au
Q4824657,Australian Screen Online,Australia,website,,,,APAC,Wikidata,
Q113758189,"Avalon Theatre, Hobart",Australia,venue,,-42.880572222,147.324436111,APAC,Wikidata_Clubs,
Q120682448,Balthazar,Australia,venue,,,,APAC,Wikidata_Clubs,
Q124849045,Bandbox Playhouse,Australia,theatre building,,-31.075495813,152.829325565,APAC,Wikidata,
Q69497685,Beachsafe,Australia,website,,,,APAC,Wikidata,
Q4884930,Belvoir St Theatre,Australia,theatre building,,-33.8889,151.209,APAC,Wikidata,http://www.belvoir.com.au/
Q4894826,Berry Sport and Recreation Centre,Australia,venue,,,,APAC,Wikidata_Clubs,
Q33298042,Big Barge Art Centre,Australia,movie theater,,,,APAC,Wikidata,
Q56679102,Bluestone Theatre,Australia,theatre building,,-37.246166666,144.449888888,APAC,Wikidata,
Q4940580,Bombay Rock,Australia,venue,,-37.7705,144.961,APAC,Wikidata_Clubs,http://bombayrock.com.au/
Q22906861,Booktopia,Australia,website,,,,APAC,Wikidata,
Q21925251,Brandon Park,Australia,venue,,-34.4068,150.9012,APAC,Wikidata_Clubs,
Q66974776,Brass Monkey Hotel,Australia,venue,,-31.948811965,115.859237279,APAC,Wikidata_Clubs,https://www.thebrassmonkey.com.au/
Q108865044,Brent Capital,Australia,website,,,,APAC,Wikidata,
Q24997917,Briggs Rd Sporting Complex,Australia,venue,,-27.64,152.76138889,APAC,Wikidata_Clubs,
Q138026838,Brighton Beach Oval,Australia,venue,,-37.928456224,144.991128323,APAC,Wikidata_Clubs,
Q4968534,Brisbane Arts Theatre,Australia,theatre building,151,-27.4616,153.0143,APAC,Wikidata,https://www.artstheatre.com.au
Q4968606,Brisbane River Stage,Australia,venue,9500.0,-27.479,153.03,APAC,Wikidata_Clubs,
Q4972226,Broadmeadow Basketball Stadium,Australia,stadium,2000,-32.923056,151.732222,APAC,Wikidata_Premium,
Q56604566,Brolga Theatre and Convention Centre,Australia,theatre building,,-25.534375,152.706041,APAC,Wikidata,
Q34328738,Broome Civic Centre,Australia,theatre building,,,,APAC,Wikidata,
Q23020236,Brummels Gallery,Australia,venue,,,,APAC,Wikidata_Clubs,
Q47001978,Brunswick Picture House,Australia,theatre building,,-28.5405127,153.5488638,APAC,Wikidata,
Q21927812,Burnie Tennis Centre,Australia,venue,,-41.05,145.89,APAC,Wikidata_Clubs,
Q113614641,Burnie Theatre,Australia,venue,,-41.051952777,145.905475,APAC,Wikidata_Clubs,
Q7720799,Butterfly Club,Australia,theatre building,,-37.8342,144.96,APAC,Wikidata,https://thebutterflyclub.com
Q113625755,CART-WHEEL.org,Australia,website,,,,APAC,Wikidata,
Q5017709,Cairns Convention Centre,Australia,stadium,5300,-16.9275,145.777778,APAC,Wikidata_Premium,http://www.cairnsconvention.com.au
Q2878077,Canberra Theatre,Australia,theatre building,,-35.28154,149.13038,APAC,Wikidata_Concerts,
Q47000700,Capital Theatre,Australia,theatre building,,-36.75722,144.276361,APAC,Wikidata,
Q5035941,Capitol Theatre,Australia,theatre building,2094,-33.8797,151.207,APAC,Wikidata,http://www.capitoltheatre.com.au/
Q5035939,Capitol Theatre,Australia,movie theater,600,-37.8154,144.966,APAC,Wikidata,
Q5035940,"Capitol Theatre, Perth",Australia,theatre building,,-31.9555,115.856,APAC,Wikidata,
Q5036228,Capri Theatre,Australia,movie theater,,-34.9528,138.59,APAC,Wikidata,
Q56736571,Carlton Court House,Australia,theatre building,,-37.797694444,144.968694444,APAC,Wikidata,
Q5071145,Chandler Arena,Australia,arena,2700,-27.512222,153.145556,APAC,Wikidata_Premium,
Q68922421,ChannelNews,Australia,website,,,,APAC,Wikidata,
Q24189485,Chapel Off Chapel,Australia,theatre building,,-37.84775,144.995388888,APAC,Wikidata,
Q5094439,Chevron Renaissance Shopping Centre,Australia,website,,-27.9996,153.428,APAC,Wikidata,
Q33298000,Christmas Island Outdoor Cinema,Australia,movie theater,,-10.4243,105.67906,APAC,Wikidata,
Q5123393,City Recital Hall,Australia,theatre building,,-33.867,151.208,APAC,Wikidata,http://www.cityrecitalhall.com/
Q5126332,Claremont Showground,Australia,venue,40000.0,-31.975552387,115.785503613,APAC,Wikidata_Clubs,
Q33298022,Club Settlement Cinema,Australia,movie theater,,,,APAC,Wikidata,
Q5144658,Coles Online,Australia,website,,,,APAC,Wikidata,
Q5150443,ComLaw,Australia,website,,,,APAC,Wikidata,
Q5151480,Comedy Theatre,Australia,theatre building,997,-37.8103,144.97,APAC,Wikidata,http://eastend.melbourne/venues/comedy-theatre
Q48619219,Commonwealth Games Australia,Australia,website,,,,APAC,Wikidata,
Q5199190,Como Theatre,Australia,movie theater,,-31.993553,115.85834,APAC,Wikidata,
Q72146112,Comparetravelinsurance.com.au,Australia,website,,,,APAC,Wikidata,
Q119288939,Connections Nightclub,Australia,nightclub,,-31.948837014,115.858453931,APAC,Wikidata_Clubs,
Q28028325,Convict Records of Australia,Australia,website,,,,APAC,Wikidata,
Q5170700,Corio Oval,Australia,venue,,-38.15133611,144.38386667,APAC,Wikidata_Clubs,
Q14935395,Courier Mail Piazza,Australia,venue,,-27.477027,153.021484,APAC,Wikidata_Clubs,http://www.visitsouthbank.com.au/attractions/piazza
Q22907542,Credit Savvy,Australia,website,,-33.859635,151.208701,APAC,Wikidata,
Q5184117,Cremorne Theatre,Australia,theatre building,,-27.4726,153.019,APAC,Wikidata,https://www.qpac.com.au/visiting/our-venues/cremorne-theatre/
Q45919917,Cremorne Theatre and Gardens,Australia,theatre building,,-30.7441508,121.4760681,APAC,Wikidata,
Q5186570,Criterion Theatre,Australia,theatre building,991,-33.8732,151.208,APAC,Wikidata,
Q5187606,Cromer Park,Australia,stadium,5000,-33.74,151.285833,APAC,Wikidata_Premium,
Q1017078,Crown Perth,Australia,theatre building,8000,-31.960830555,115.895561111,APAC,Wikidata,https://www.crownperth.com.au/
Q98079221,"Croxton Park, Victoria",Australia,venue,,-37.761944444,144.998333333,APAC,Wikidata_Clubs,
Q39054566,Dallas Brooks Hall,Australia,venue,,-37.8098,144.9817,APAC,Wikidata_Clubs,
Q34446183,Dancehouse,Australia,theatre building,,-37.792169,144.9704912,APAC,Wikidata,
Q5222489,Darebin International Sports Centre,Australia,venue,,-37.764672,145.022875,APAC,Wikidata_Clubs,https://www.darebin.vic.gov.au/Events-and-facilities/Sport-in-Darebin/Find-and-book-a-sport-venue
Q5223949,Darlinghurst Theatre,Australia,theatre building,,-33.878659,151.216067,APAC,Wikidata,
Q5225974,Darwin Football Stadium,Australia,stadium,6000,-12.396389,130.880833,APAC,Wikidata_Premium,
Q65078297,Darwin Netball Stadium,Australia,venue,,,,APAC,Wikidata_Clubs,
Q27925168,David Barro Stadium,Australia,stadium,6000,,,APAC,Wikidata_Premium,
Q25350696,Deakin Stadium,Australia,stadium,1500,-35.31388889,149.10555556,APAC,Wikidata_Premium,
Q5273961,Design & Art Australia Online,Australia,website,,,,APAC,Wikidata,
Q28220450,Diamond Sports Stadium,Australia,stadium,3000,-34.94777778,138.50833333,APAC,Wikidata_Premium,
Q101251390,DigiTrust,Australia,website,,,,APAC,Wikidata,
Q109360551,Domain,Australia,website,,,,APAC,Wikidata,
Q107548148,Doof Shed,Australia,venue,,,,APAC,Wikidata_Clubs,
Q5306806,Dreamworld Cinema,Australia,movie theater,,-27.863,153.316,APAC,Wikidata,
Q30643859,ES Marks Athletics Field,Australia,venue,,,,APAC,Wikidata_Clubs,
Q74119365,Early Settler Stadium,Australia,venue,,-16.924722222,145.753055555,APAC,Wikidata_Clubs,
Q28947885,East Fremantle Town Hall,Australia,movie theater,,-32.041168,115.763052,APAC,Wikidata,
Q24090136,Elcho Park,Australia,venue,,-38.029943,144.359434,APAC,Wikidata_Clubs,
Q24089937,Elite Systems Football Centre,Australia,venue,,-34.857627,138.558529,APAC,Wikidata_Clubs,
Q7731948,Empire Theatre,Australia,theatre building,,-27.5629749,151.9552776,APAC,Wikidata,http://www.empiretheatre.com.au
Q48772492,Enfield Savoy Theatre,Australia,venue,,,,APAC,Wikidata_Clubs,
Q5379114,Enmore Theatre,Australia,theatre building,,-33.8989,151.174,APAC,Wikidata,http://www.enmoretheatre.com.au
Q120682460,Enoteca Boccaccio,Australia,venue,,-37.801193258,145.062560774,APAC,Wikidata_Clubs,
Q5379958,Ensemble Theatre,Australia,theatre building,,,,APAC,Wikidata,
Q5380906,Envato,Australia,website,,,,APAC,Wikidata,
Q5411235,Eureka Stadium,Australia,stadium,10000,-37.539528,143.848028,APAC,Wikidata_Premium,
Q23701436,Event Cinemas George Street,Australia,movie theater,,-33.8751826,151.2059525,APAC,Wikidata,
Q24089736,Exhibition Park in Canberra,Australia,venue,,-35.233071,149.145968,APAC,Wikidata_Clubs,http://www.exhibitionparkincanberra.com
Q127416239,Eynesbury House,Australia,venue,,-34.971885758,138.610154964,APAC,Wikidata_Clubs,
Q55611413,Fairfield Showground,Australia,venue,,-33.8667,150.9056,APAC,Wikidata_Clubs,http://www.fairfieldshowground.com.au/
Q135435286,Federation Concert Hall,Australia,venue,,,,APAC,Wikidata_Clubs,
Q923304,Federation Square,Australia,venue,,-37.817798,144.968714,APAC,Wikidata_Clubs,
Q36131010,Ferry Lane Theatre,Australia,movie theater,,-29.0287186,167.9442427,APAC,Wikidata,
Q122923255,Find my School,Australia,website,,,,APAC,Wikidata,
Q17004575,Flippa,Australia,website,,,,APAC,Wikidata,
Q138320990,Flora of Tasmania online,Australia,website,,,,APAC,Wikidata,
Q5460267,FloraBase,Australia,website,,,,APAC,Wikidata,
Q5463237,Fly by Night Musicians Club,Australia,nightclub,,-32.053573179,115.749890095,APAC,Wikidata_Clubs,http://www.flybynight.org/
Q109354239,Former Members – Parliament of NSW,Australia,website,,,,APAC,Wikidata,
Q114834199,Former Members – Parliament of South Australia,Australia,website,,,,APAC,Wikidata,
Q114530224,Former Members – Parliament of Tasmania,Australia,website,,,,APAC,Wikidata,
Q24189796,Fortyfivedownstairs,Australia,venue,,-37.814964,144.973162,APAC,Wikidata_Clubs,
Q5473086,Forum Theatre,Australia,theatre building,,-37.816388888,144.969444444,APAC,Wikidata,https://forummelbourne.com.au/
Q106298247,Frank Holohan Soccer Complex,Australia,venue,,-37.9599,145.2377,APAC,Wikidata_Clubs,
Q5492248,Frankston Arts Centre,Australia,theatre building,,-38.146125,145.123494,APAC,Wikidata_Concerts,http://artscentre.frankston.vic.gov.au/
Q22271767,Fremantle School building,Australia,movie theater,,-32.050683,115.749061,APAC,Wikidata,
Q5501504,Fremantle Town Hall,Australia,movie theater,,-32.054293,115.7479,APAC,Wikidata,
Q14934804,Gabbie Stadium,Australia,stadium,7500,-33.76722222,150.94,APAC,Wikidata_Premium,
Q5516619,Gaelic Theatre,Australia,theatre building,,-33.8857,151.207,APAC,Wikidata_Concerts,http://www.thegaelic.com
Q56604606,Gaiety Theatre,Australia,theatre building,,-41.881978,145.335266,APAC,Wikidata,
Q107106987,"Gaiety Theatre, Sydney",Australia,theatre building,,,,APAC,Wikidata,
Q112126547,"Gaiety Theatre, Zeehan",Australia,theatre building,1000,-41.882013888,145.335275,APAC,Wikidata,
Q5523991,Garrick Theatre,Australia,theatre building,,-31.89993551,115.9720714,APAC,Wikidata_Concerts,http://www.garricktheatre.asn.au
Q29025076,"Garrick Theatre, Sydney",Australia,theatre building,,-33.87009,151.20935,APAC,Wikidata,
Q135927847,Gazette,Australia,website,,,,APAC,Wikidata,
Q5529828,Geelong Arena,Australia,arena,2000,-38.123333,144.351389,APAC,Wikidata_Premium,http://www.geelongaustralia.com.au/geelongarena/
Q5529849,Geelong Performing Arts Centre,Australia,movie theater,,-38.1474,144.3565,APAC,Wikidata,https://geelongartscentre.org.au
Q84526248,Giant Dwarf Theatre,Australia,theatre building,,-33.889662,151.203393,APAC,Wikidata,
Q63089483,Gizmodo Australia,Australia,website,,,,APAC,Wikidata,
Q5568057,Glen Street Theatre,Australia,theatre building,,-33.74023,151.21031,APAC,Wikidata_Concerts,http://www.glenstreet.com.au/
Q24090105,Glenorchy Ice Skating Rink,Australia,venue,,-42.83363889,147.28058333,APAC,Wikidata_Clubs,
Q14935428,Gold Coast Convention and Exhibition Centre,Australia,stadium,6000,-28.02861111,153.42861111,APAC,Wikidata_Premium,http://www.gccec.com.au/
Q106322013,Graham Road Oval,Australia,venue,,-27.356782,153.012707,APAC,Wikidata_Clubs,
Q28219602,Grand Theatre,Australia,theatre building,,-31.9529486,115.8588595,APAC,Wikidata,
Q22271884,"Granville Park, Merrylands",Australia,venue,,-33.840374,150.99679,APAC,Wikidata_Clubs,
Q110117068,Greek City Times,Australia,website,,,,APAC,Wikidata,
Q16970252,Green and Gold Rugby,Australia,website,,,,APAC,Wikidata,
Q17000633,Guardian Australia,Australia,website,,,,APAC,Wikidata,
Q24089933,Gungahlin Enclosed Oval,Australia,venue,,-35.185,149.12722222,APAC,Wikidata_Clubs,
Q7714606,HOTA - Home of the Arts,Australia,theatre building,,-28.0015,153.416,APAC,Wikidata,https://hota.com.au/
Q5644501,Hamer Hall,Australia,concert hall,2466,-37.8203,144.968,APAC,Wikidata_Premium,https://www.artscentremelbourne.com.au/visit/theatres-and-spaces/hamer-hall
Q5647591,Hands Oval,Australia,stadium,5000,-33.346111,115.642778,APAC,Wikidata_Premium,
Q23214788,Have I Been Pwned?,Australia,website,,,,APAC,Wikidata,
Q107319604,Haymarket Theatre,Australia,theatre building,,,,APAC,Wikidata,
Q5732319,Her Majesty's Theatre,Australia,theatre building,1700,-37.81096,144.96964,APAC,Wikidata,http://www.hmt.com.au
Q8555141,Her Majesty's Theatre,Australia,theatre building,2000,-33.870658333,151.20835,APAC,Wikidata,
Q56604672,Her Majesty's Theatre,Australia,theatre building,,-27.46916,153.02621,APAC,Wikidata,
Q47000692,Her Majesty's Theatre,Australia,theatre building,,-37.56272,143.85785,APAC,Wikidata,
Q106805807,Her Majesty's Theatre,Australia,theatre building,,-37.562552474,143.857808802,APAC,Wikidata,
Q65074082,Hickey Park,Australia,venue,,-27.4158,153.0204,APAC,Wikidata_Clubs,
Q5772098,His Majesty's Theatre,Australia,theatre building,1263,-31.95307821,115.8544388,APAC,Wikidata,https://www.artsculturetrust.wa.gov.au/venues/his-majestys-theatre/
Q4634776,Hitchhike TV,Australia,website,,-27.4752,153.007,APAC,Wikidata,
Q17006764,Hoax Slayer,Australia,website,,,,APAC,Wikidata,
Q133286853,Holm Park Recreation Reserve,Australia,stadium,7000,-38.0367,145.3732,APAC,Wikidata_Premium,
Q5905141,HorrorScope,Australia,website,,,,APAC,Wikidata,
Q105532249,Indigenous Australia,Australia,website,,,,APAC,Wikidata,
Q126597437,Infographic News Service,Australia,website,,,,APAC,Wikidata,
Q117734294,Inside Story,Australia,website,,,,APAC,Wikidata,
Q6091377,It's an Honour,Australia,website,,,,APAC,Wikidata,
Q130739494,J.B. Osborne Theatre,Australia,theatre building,,-36.7902849,144.2351083,APAC,Wikidata,
Q60743161,Jack Manski Oval,Australia,venue,,-19.318333333,146.712222222,APAC,Wikidata_Clubs,
Q1245311,John Cain Arena,Australia,arena,10300,-37.8227757,144.981867,APAC,Wikidata_Premium,https://johncainarena.com.au/
Q84718209,John Edmondson V.C. Memorial Club,Australia,nightclub,,-33.9219,150.92449,APAC,Wikidata_Clubs,https://www.clubliverpool.com.au/
Q117084855,Kick,Australia,website,,,,APAC,Wikidata,
Q48804727,"King's Theatre, Melbourne",Australia,theatre building,,,,APAC,Wikidata,
Q6430893,Kooyong Stadium,Australia,stadium,8500,-37.838333,145.031944,APAC,Wikidata_Premium,https://www.kooyong.com.au/
Q6463660,La Mama Theatre,Australia,theatre building,,-37.7991221,144.9676587,APAC,Wikidata,http://www.lamama.com.au
Q137883725,La Trobe Sports Park,Australia,venue,,-37.7231487,145.041711511,APAC,Wikidata_Clubs,
Q6460941,LaTrobe City Stadium,Australia,stadium,12000,-38.216111,146.428056,APAC,Wikidata_Premium,
Q105567476,Labour Australia,Australia,website,,,,APAC,Wikidata,
Q6474690,Lake Ainsworth Recreation Hall,Australia,venue,,,,APAC,Wikidata_Clubs,
Q14935470,Langlands Park,Australia,venue,,-27.49638889,153.04944444,APAC,Wikidata_Clubs,
Q21932701,Larrakia Park,Australia,stadium,6000,-12.396111111,130.88,APAC,Wikidata_Premium,
Q63089476,Lifehacker Australia,Australia,website,,,,APAC,Wikidata,
Q14935853,Luna Leederville,Australia,movie theater,,-31.93623091,115.840984942,APAC,Wikidata,
Q28219845,"Lyric Theatre, Sydney",Australia,movie theater,,-33.868574,151.196235,APAC,Wikidata,
Q75848338,MPPDA Digital Archive,Australia,website,,,,APAC,Wikidata,
Q6729974,Magdala Park,Australia,venue,3000.0,-33.7985,151.1346,APAC,Wikidata_Clubs,
Q112686408,"Majestic Theatre, Launceston",Australia,venue,,,,APAC,Wikidata_Clubs,
Q24090148,"Majestic Theatre, Pomona",Australia,movie theater,,-26.3655,152.8576,APAC,Wikidata,
Q6744899,"Malthouse Theatre, Melbourne",Australia,theatre building,520,-37.827,144.967,APAC,Wikidata,https://www.malthousetheatre.com.au/
Q108179268,Man of Many,Australia,website,,,,APAC,Wikidata,
Q34328031,Mandurah Performing Arts Centre,Australia,theatre building,,-32.52763,115.71879,APAC,Wikidata,
Q6757794,Marconi Stadium,Australia,stadium,11500,-33.863485,150.880362,APAC,Wikidata_Premium,
Q732679,Margaret Court Arena,Australia,arena,7500,-37.8211444,144.977625,APAC,Wikidata_Premium,https://margaretcourtarena.com.au/
Q78108376,Mayfair Building Group,Australia,website,,,,APAC,Wikidata,
Q12122406,Melbourne Athenaeum,Australia,theatre building,880,-37.81504,144.96736,APAC,Wikidata,http://www.melbourneathenaeum.org.au
Q6811716,Melbourne Ballpark,Australia,stadium,3900,-37.86,144.780556,APAC,Wikidata_Premium,
Q24189355,Melbourne Glaciarium,Australia,venue,,-37.820863,144.967189,APAC,Wikidata_Clubs,
Q137919806,Melbourne Park Oval,Australia,venue,,-37.822708652,144.979895416,APAC,Wikidata_Clubs,
Q122170522,Melbourne Playgrounds,Australia,website,,,,APAC,Wikidata,
Q10931280,Melbourne Recital Centre,Australia,venue,,-37.8241,144.968,APAC,Wikidata_Clubs,http://www.melbournerecital.com.au
Q6824486,Metro Arts Theatre,Australia,theatre building,,-27.4701,153.029,APAC,Wikidata,
Q14935836,Metropolis Fremantle,Australia,theatre building,,-32.055813,115.748493,APAC,Wikidata,https://www.metropolisfremantle.com.au/
Q19321660,Minerva Theatre,Australia,theatre building,,-33.871866666,151.224338888,APAC,Wikidata,
Q50840984,Moreton Bay Central Sports Complex,Australia,venue,,,,APAC,Wikidata_Clubs,
Q64697780,Morwell Recreation Reserve,Australia,venue,,,,APAC,Wikidata_Clubs,
Q56604570,Mount Isa Civic Centre,Australia,theatre building,,-20.7251515,139.4900935,APAC,Wikidata,
Q30118397,Mumbrella,Australia,website,,,,APAC,Wikidata,
Q80590524,Musical Maps,Australia,website,,,,APAC,Wikidata,
Q99724162,My Health Record,Australia,website,,,,APAC,Wikidata,
Q125345974,MyDeal,Australia,website,,,,APAC,Wikidata,
Q3336120,Narrabundah Ballpark,Australia,stadium,1500,-35.339167,149.154722,APAC,Wikidata_Premium,
Q6978836,National Tally Room,Australia,venue,,,,APAC,Wikidata_Clubs,
Q6978920,National Theatre,Australia,theatre building,783,-37.8669,144.981,APAC,Wikidata,http://www.nationaltheatre.org.au
Q112686430,"National Theatre, Launceston",Australia,venue,,-41.436972222,147.136575,APAC,Wikidata_Clubs,
Q6989596,Neils Hansen Stadium,Australia,venue,,-30.7419,121.476,APAC,Wikidata_Clubs,
Q110864154,"Netball Central, Sydney Olympic Park",Australia,venue,,,,APAC,Wikidata_Clubs,
Q6998686,Netball SA Stadium,Australia,stadium,3200,-34.9325,138.578611,APAC,Wikidata_Premium,
Q7753581,New Empire Cinema,Australia,movie theater,,-34.4797153,150.4172384,APAC,Wikidata,
Q7012111,New Tivoli Theatre,Australia,theatre building,,-33.87996,151.20816,APAC,Wikidata,
Q14934946,Newcastle Civic Theatre,Australia,theatre building,,-32.9274,151.7723,APAC,Wikidata,http://www.civictheatrenewcastle.com.au
Q7017412,Newcastle Entertainment Centre,Australia,stadium,7528,-32.920833333,151.73625,APAC,Wikidata_Premium,http://www.nec.net.au
Q28183917,Nostalgic Queen's Theatre,Australia,movie theater,,-26.5869,149.1865,APAC,Wikidata,
Q58898260,Oakpont,Australia,website,,,,APAC,Wikidata,
Q45308439,Odeon Theatre,Australia,theatre building,,-42.883376,147.3248672,APAC,Wikidata,
Q30693875,Old Fitzroy Theatre,Australia,venue,58.0,-33.8731172,151.2206205,APAC,Wikidata_Clubs,
Q138024766,Old Xaverians Oval,Australia,venue,,-37.822777777,144.981666666,APAC,Wikidata_Clubs,
Q47464223,One.Tel,Australia,website,,,,APAC,Wikidata,
Q33298009,Open-Air Cinema,Australia,movie theater,,,,APAC,Wikidata,
Q106322398,"Opera House, Sydney",Australia,theatre building,,,,APAC,Wikidata,
Q120490403,Orange Civic Theatre,Australia,theatre building,,-33.28149,149.10247,APAC,Wikidata,
Q14935893,Oriana Cinema,Australia,movie theater,1200,-32.053708,115.749512,APAC,Wikidata,
Q33298016,Outdoor Cinema,Australia,movie theater,,,,APAC,Wikidata,
Q33298033,Outdoor Cinema,Australia,movie theater,,,,APAC,Wikidata,
Q122945438,OzBargain,Australia,website,,,,APAC,Wikidata,
Q7126198,Palace Theatre,Australia,theatre building,1855,-37.811389,144.972222,APAC,Wikidata,http://www.palace.com.au
Q28220272,Palace Theatre,Australia,theatre building,,-33.8717997,151.2080523,APAC,Wikidata,
Q7126602,Palais Theatre,Australia,theatre building,2896,-37.8676,144.976,APAC,Wikidata,http://www.palaistheatre.net.au/
Q7126605,"Palais de Danse, St Kilda",Australia,venue,,,,APAC,Wikidata_Clubs,
Q3887925,Pandora Archive,Australia,website,,-35.296525,149.12945,APAC,Wikidata,
Q23822827,Paragon Theatre,Australia,theatre building,,-25.2361,152.2767,APAC,Wikidata,
Q45308533,Paragon Theatre,Australia,theatre building,1150,-42.080147222,145.554883333,APAC,Wikidata,http://www.theparagon.com.au
Q112263440,"Paragon Theatre, Queenstown",Australia,venue,,,,APAC,Wikidata_Clubs,
Q15697693,Paris Theatre,Australia,theatre building,,-33.8768843,151.2114773,APAC,Wikidata,
Q72699439,Pathways,Australia,website,,,,APAC,Wikidata,
Q106610081,Pedestrian.TV,Australia,website,,,,APAC,Wikidata,
Q105530643,People Australia,Australia,website,,,,APAC,Wikidata,
Q37114125,Performance Space,Australia,theatre building,,-33.893888888,151.191944444,APAC,Wikidata,
Q7169828,Perry Lakes Basketball Stadium,Australia,stadium,1500,-31.937778,115.7925,APAC,Wikidata_Premium,
Q7169865,Perry Park,Australia,stadium,4000,-27.4433,153.039,APAC,Wikidata_Premium,
Q2035401,Perth Arena,Australia,stadium,15500,-31.948333333,115.851944444,APAC,Wikidata_Premium,https://www.racarena.com.au/
Q5068914,Perth High Performance Centre,Australia,stadium,4500,-31.9525,115.7825,APAC,Wikidata_Premium,https://www.perthhpc.com.au/
Q978904,Perth Rectangular Stadium,Australia,movie theater,20441,-31.945751164,115.869923754,APAC,Wikidata,
Q7190567,Piccadilly Theatre and Arcade,Australia,movie theater,,-31.95335235,115.858261,APAC,Wikidata,
Q55630012,Pilbeam Theatre,Australia,venue,,-23.373,150.50919972,APAC,Wikidata_Clubs,
Q48795907,"Playbox Theatre, Melbourne",Australia,venue,,,,APAC,Wikidata_Clubs,
Q7203660,Plaza Theatre,Australia,theatre building,,-33.8754,151.207,APAC,Wikidata,
Q18754811,Plaza Theatre,Australia,movie theater,,-27.4581,152.995,APAC,Wikidata,
Q61895665,Plenty Ranges Arts and Convention Centre,Australia,theatre building,,-37.6427452,145.0694258,APAC,Wikidata,
Q7228559,Pool,Australia,website,,,,APAC,Wikidata,
Q7230769,Port Macquarie Regional Stadium,Australia,stadium,10000,-31.427222,152.872222,APAC,Wikidata_Premium,
Q56604555,Prince of Wales Opera House,Australia,theatre building,,-32.36283,149.53382,APAC,Wikidata,
Q108737813,Prince of Wales Theatre,Australia,theatre building,,,,APAC,Wikidata,
Q107141994,"Prince of Wales Theatre, Sydney",Australia,theatre building,,,,APAC,Wikidata,
Q20639523,Princes Gate Towers,Australia,venue,,,,APAC,Wikidata_Clubs,
Q14935900,Princess Theatre,Australia,theatre building,,-32.053669,115.745845,APAC,Wikidata,
Q7244850,Princess Theatre,Australia,theatre building,1452,-37.810722222,144.97235,APAC,Wikidata,https://marrinergroup.com.au/princess-theatre
Q125964949,Projektmono,Australia,website,,,,APAC,Wikidata,
Q131747505,Q131747505,Australia,website,,,,APAC,Wikidata,
Q45919454,"Queen's Park Theatre, Geraldton",Australia,theatre building,,-28.7806812,114.6146843,APAC,Wikidata,
Q7270118,Queen's Theatre,Australia,theatre building,,-34.925418,138.595549,APAC,Wikidata,http://arts.sa.gov.au/queens-theatre
Q106097531,Queen's Theatre,Australia,theatre building,,,,APAC,Wikidata,
Q7270976,Queensland Performing Arts Centre,Australia,theatre building,,-27.475,153.02,APAC,Wikidata,
Q7271013,Queensland State Hockey Centre,Australia,stadium,500,-27.451944,153.068611,APAC,Wikidata_Premium,
Q17054301,"Railway Hotel, Perth",Australia,movie theater,,-31.9528,115.8613,APAC,Wikidata,
Q21727536,Re-Member,Australia,website,,,,APAC,Wikidata,
Q7300178,Reach Out,Australia,website,,,,APAC,Wikidata,
Q24189497,Red Stitch Actors Theatre,Australia,venue,,,,APAC,Wikidata_Clubs,
Q7307927,Regal Theatre,Australia,theatre building,,-31.946782,115.823755,APAC,Wikidata,https://www.regaltheatre.com.au/
Q7760044,Regal Theatre,Australia,movie theater,,-34.9264,138.651,APAC,Wikidata,
Q47002079,Regent Cinema,Australia,theatre building,,-28.327328,153.3956591,APAC,Wikidata,
Q7308110,Regent Theatre,Australia,theatre building,2143,-37.8155,144.967,APAC,Wikidata,http://eastend.melbourne/venues/regent-theatre
Q7308115,Regent Theatre,Australia,theatre building,2258,-33.8747,151.206,APAC,Wikidata,
Q7308111,Regent Theatre,Australia,movie theater,,-27.4699,153.027,APAC,Wikidata,
Q119151677,Revolver Upstairs,Australia,nightclub,,,,APAC,Wikidata_Clubs,
Q7338627,Riverside Theatre Parramatta,Australia,theatre building,,,,APAC,Wikidata,
Q16864824,Rivoli Cinema,Australia,movie theater,,-37.83058,145.05544,APAC,Wikidata,
Q65120834,Rockhampton Music Bowl,Australia,venue,,-23.3175,150.513888888,APAC,Wikidata_Clubs,
Q60787338,Rockhampton Showgrounds,Australia,venue,,-23.368611111,150.498888888,APAC,Wikidata_Clubs,
Q104837654,Rockingham Theatre,Australia,theatre building,,-32.276969986,115.737041816,APAC,Wikidata,
Q222878,Rod Laver Arena,Australia,arena,14820,-37.8215694,144.9785194,APAC,Wikidata_Premium,https://rodlaverarena.com.au/
Q7660173,Roslyn Packer Theatre,Australia,theatre building,896,-33.85722222,151.20472222,APAC,Wikidata,
Q7372458,Roxy Community Theatre,Australia,theatre building,,-34.55201,146.40526,APAC,Wikidata,https://roxyleeton.com.au/
Q7372479,Roxy Theatre,Australia,movie theater,,,,APAC,Wikidata,
Q106390928,"Royal Lyceum, Sydney",Australia,theatre building,,,,APAC,Wikidata,
Q137920329,Royal Park ovals,Australia,venue,,-37.790183333,144.951166666,APAC,Wikidata_Clubs,
Q108670565,Royal Standard Theatre,Australia,theatre building,,,,APAC,Wikidata,
Q50173286,Royal Victoria Theatre,Australia,theatre building,,,,APAC,Wikidata,
Q19413232,Rugby League Project,Australia,website,,,,APAC,Wikidata,
Q24089903,"Rugby Park, Rockhampton",Australia,venue,,-23.406389,150.495278,APAC,Wikidata_Clubs,
Q7420641,SA Athletics Stadium,Australia,stadium,8000,-34.929444,138.578333,APAC,Wikidata_Premium,
Q117349644,Safer Australia,Australia,website,,,,APAC,Wikidata,
Q47002042,Saraton Theatre,Australia,theatre building,,-29.6890837,152.9347884,APAC,Wikidata,
Q24997560,Savoy Hotel,Australia,movie theater,,-31.95416,115.85955,APAC,Wikidata,
Q7432113,Schonell Theatre,Australia,theatre building,,-27.4971,153.015,APAC,Wikidata,
Q33298028,Settlement Cinema,Australia,movie theater,,,,APAC,Wikidata,
Q7459144,Seymour Centre,Australia,theatre building,,-33.8886,151.1935,APAC,Wikidata,
Q7460718,Shadowed Realms,Australia,website,,,,APAC,Wikidata,
Q48814398,Shop A Docket,Australia,website,,,,APAC,Wikidata,
Q7501141,Shopfront,Australia,theatre building,,,,APAC,Wikidata,
Q60793092,Show Court 2,Australia,arena,3000,-37.820712,144.976965,APAC,Wikidata_Premium,
Q104851746,Show Court 3,Australia,arena,3000,-37.820165,144.978145,APAC,Wikidata_Premium,
Q105626341,Show Court Arena,Australia,arena,5000,-37.8219389,144.9807306,APAC,Wikidata_Premium,
Q136763019,Solace Bar,Australia,nightclub,,,,APAC,Wikidata_Clubs,
Q28859275,South Pine Sports Complex,Australia,venue,,,,APAC,Wikidata_Clubs,http://southpinesports.com.au/
Q23019900,Southbank Theatre,Australia,theatre building,,-37.82405556,144.96827778,APAC,Wikidata,
Q74116163,Springfield Central Stadium,Australia,venue,,-27.669838757,152.905413584,APAC,Wikidata_Clubs,
Q137799951,Springvale Reserve,Australia,venue,,-37.943602561,145.147565043,APAC,Wikidata_Clubs,
Q7593232,St George Stadium,Australia,stadium,15000,-33.947222,151.155,APAC,Wikidata_Premium,
Q18166605,St Georges Hall,Australia,theatre building,,-31.9552,115.863,APAC,Wikidata,
Q138027693,"St James Park, Hawthorn",Australia,venue,,-37.81993112,145.021280176,APAC,Wikidata_Clubs,
Q24090091,St. Moritz Ice Rink,Australia,venue,,-37.865301,144.974746,APAC,Wikidata_Clubs,
Q7596488,Stadium Mackay,Australia,stadium,12200,-21.163611,149.183889,APAC,Wikidata_Premium,http://www.virginaustraliastadium.com.au/
Q7600613,Star Amphitheatre,Australia,theatre building,,,,APAC,Wikidata,
Q14935645,Star Theatre,Australia,theatre building,,-41.4182,147.134,APAC,Wikidata,http://www.startheatre.com.au
Q47000706,Star Theatre,Australia,theatre building,,-36.150857,146.609547,APAC,Wikidata,
Q23013898,State Basketball Centre,Australia,venue,,-37.880645,145.211674722,APAC,Wikidata_Clubs,
Q113561519,State Centre for Football,Australia,venue,,-34.8397,138.6188,APAC,Wikidata_Clubs,
Q3527609,State Theatre,Australia,theatre building,2079,-37.8203,144.968,APAC,Wikidata,
Q7603582,State Theatre,Australia,theatre building,,-33.87096,151.20739,APAC,Wikidata,http://www.statetheatre.com.au/
Q14935912,State Theatre Centre of Western Australia,Australia,theatre building,,-31.9499057,115.8594125,APAC,Wikidata,https://www.ptt.wa.gov.au/venues/state-theatre-centre-of-wa/
Q7618109,Stockland Park,Australia,stadium,12000,-26.733889,153.126111,APAC,Wikidata_Premium,
Q7620004,Storey Hall,Australia,movie theater,,-37.8103232,144.964082,APAC,Wikidata,
Q18385729,Strand Theatre,Australia,movie theater,,-27.5611,151.956,APAC,Wikidata,
Q7638432,Sun Picture Gardens,Australia,movie theater,,-17.95345582,122.2430706,APAC,Wikidata,
Q7638543,Sun Theatre,Australia,movie theater,,-37.815978723,144.890949943,APAC,Wikidata,
Q16971780,Supercoach,Australia,website,,,,APAC,Wikidata,
Q29726,Sydney Entertainment Centre,Australia,stadium,13250,-33.878333,151.202778,APAC,Wikidata_Premium,http://www.sydentcent.com.au
Q24191161,Sydney Glaciarium,Australia,venue,,,,APAC,Wikidata_Clubs,
Q16937448,Sydney Ice Arena,Australia,arena,1000,-33.73213,150.96177,APAC,Wikidata_Premium,http://www.sydneyicearena.com.au/
Q6709996,Sydney Lyric,Australia,theatre building,,-33.8686,151.196,APAC,Wikidata,https://www.sydneylyric.com.au/
Q7660068,Sydney Olympic Park Athletic Centre,Australia,stadium,5000,-33.850278,151.064167,APAC,Wikidata_Premium,http://www.athleticcentre.com.au/
Q2333630,Sydney Olympic Park Hockey Centre,Australia,stadium,8000,-33.855,151.068056,APAC,Wikidata_Premium,
Q12070422,Sydney Showground,Australia,arena,10000,-33.845556,151.068056,APAC,Wikidata_Premium,http://www.sydneyshowground.com.au/home.html
Q7660159,Sydney Stadium,Australia,stadium,15000,-33.876978,151.230274,APAC,Wikidata_Premium,
Q136411443,Teknoscape,Australia,website,,,,APAC,Wikidata,
Q116229644,Tennis First Academy,Australia,venue,,-33.92246,150.92777,APAC,Wikidata_Clubs,https://www.tennisfirst.com.au/locations/liverpool/
Q109974117,Territory Rugby League Stadium,Australia,venue,,-12.396583333,130.886527777,APAC,Wikidata_Clubs,
Q7727516,The Conversation,Australia,website,,,,APAC,Wikidata,
Q19571352,The Courier,Australia,website,,,,APAC,Wikidata,
Q4959444,The Gardens Greyhound and Sporting Complex,Australia,stadium,4000,-32.893333333,151.6825,APAC,Wikidata_Premium,
Q23073880,The Hoopla,Australia,website,,,,APAC,Wikidata,
Q7751197,The Metro Theatre,Australia,theatre building,,-33.8758,151.207,APAC,Wikidata,
Q7752733,The Music Hall,Australia,theatre building,,-33.830825,151.220827,APAC,Wikidata,
Q7754800,The Old Bar,Australia,venue,,-37.7983,144.977,APAC,Wikidata_Clubs,http://www.theoldbar.com.au/
Q7757461,The Playhouse Theatre,Australia,theatre building,,-31.9559,115.8617,APAC,Wikidata,http://www.playhousetheatre.com.au/
Q123291718,The Ribbon,Australia,venue,,-33.877898,151.199573,APAC,Wikidata_Clubs,
Q17027896,The Ritz Cinema,Australia,movie theater,,-33.92,151.243333333,APAC,Wikidata,
Q138012203,The Rookies,Australia,website,,,,APAC,Wikidata,
Q390216,The Sydney Morning Herald,Australia,website,,,,APAC,Wikidata,
Q7768428,The Tender Trap,Australia,nightclub,,-33.8734,151.224,APAC,Wikidata_Clubs,
Q25182730,The Tivoli,Australia,venue,,-27.45224,153.0315,APAC,Wikidata_Clubs,
Q7774368,The Wharf Theatre,Australia,theatre building,,-33.8551,151.206,APAC,Wikidata,https://www.sydneytheatre.com.au/your-visit/the-wharf-theatres
Q3523488,"Theatre Royal, Hobart",Australia,theatre building,698,-42.8796,147.331,APAC,Wikidata,http://www.theatreroyal.com.au/
Q56604580,"Theatre Royal, Sydney",Australia,theatre building,,-33.86892,151.209475,APAC,Wikidata,
Q7777440,"Theatre Royal, Sydney",Australia,theatre building,1180.0,-33.8685,151.209561,APAC,Wikidata_Concerts,http://www.theatreroyal.net.au
Q24883790,Theatre Works,Australia,venue,,,,APAC,Wikidata_Clubs,
Q7777604,Thebarton Theatre,Australia,movie theater,,-34.9236,138.569,APAC,Wikidata,http://www.thebartontheatre.com.au/index.html
Q24090063,Tivoli Theatre,Australia,movie theater,,-37.8136272,144.9666021,APAC,Wikidata,
Q138020420,Tom Wills Oval,Australia,venue,,-33.852315629,151.0728257,APAC,Wikidata_Clubs,
Q6422421,Tompsett Stadium,Australia,stadium,15000,-37.762208,144.845397,APAC,Wikidata_Premium,
Q17026445,Toodyay Memorial Hall,Australia,movie theater,,-31.550444,116.466833,APAC,Wikidata,
Q7830278,Townsville Entertainment and Convention Centre,Australia,stadium,5257,-19.250556,146.8275,APAC,Wikidata_Premium,
Q16632731,Townsville RSL Stadium,Australia,stadium,2500,,,APAC,Wikidata_Premium,
Q107298700,Tramway Oval,Australia,venue,,-33.8916944,151.2219722,APAC,Wikidata_Clubs,
Q95596878,Treena,Australia,website,,,,APAC,Wikidata,
Q19880075,Triumph Cinema,Australia,movie theater,,-27.4884,153.047,APAC,Wikidata,
Q18609226,Trove,Australia,website,,,,APAC,Wikidata,
Q113481494,Tryst.link,Australia,website,,,,APAC,Wikidata,
Q84718910,Twin Towns Services Club,Australia,nightclub,,-28.16862,153.54434,APAC,Wikidata_Clubs,
Q7865406,UNSW Venues,Australia,theatre building,,,,APAC,Wikidata_Concerts,
Q110234414,Ulumbarra Theatre,Australia,venue,,-36.75416,144.28035,APAC,Wikidata_Clubs,
Q104872779,Universal Theatre,Australia,theatre building,,,,APAC,Wikidata,
Q7911569,"Valhalla Cinema, Melbourne",Australia,movie theater,,-37.810457,144.998418,APAC,Wikidata,
Q25350704,Valley Road Ground,Australia,venue,,-41.18497222,146.33713889,APAC,Wikidata_Clubs,
Q7926747,Victoria Hall,Australia,movie theater,,-32.0536,115.75,APAC,Wikidata,
Q56599115,Victoria Theatre,Australia,theatre building,,-37.57661,143.86611,APAC,Wikidata,
Q7927086,Victoria Theatre,Australia,movie theater,,-32.9287,151.778,APAC,Wikidata,
Q100745553,Virtual War Memorial Australia,Australia,website,,,,APAC,Wikidata,
Q7950813,WIN Entertainment Centre,Australia,stadium,6000,-34.426667,150.902778,APAC,Wikidata_Premium,
Q118107796,WPGA Tour Australasia website,Australia,website,,,,APAC,Wikidata,
Q7959534,Wagga Wagga Civic Theatre,Australia,theatre building,492.0,-35.109166666,147.372222222,APAC,Wikidata_Concerts,https://civictheatre.com.au/
Q115868017,Warners Bay Performing Arts Precinct,Australia,theatre building,,-32.972891753,151.644184533,APAC,Wikidata,
Q62946343,Warragul Cinema Centre,Australia,theatre building,,,,APAC,Wikidata,
Q768500,Wentworth Park,Australia,stadium,10000,-33.8775,151.193333,APAC,Wikidata_Premium,
Q14935929,Western Australian Athletics Stadium,Australia,stadium,1971,-31.9503,115.782,APAC,Wikidata_Premium,
Q17036521,What Degree? Which University?,Australia,website,,,,APAC,Wikidata,
Q22271965,Whitlam Centre,Australia,venue,,-33.92522,150.91498,APAC,Wikidata_Clubs,https://www.whitlamleisurecentre.com.au/
Q8024583,Windsor Cinema,Australia,movie theater,,-31.9797,115.802,APAC,Wikidata,
Q29025271,Woden Park,Australia,venue,,-35.34444444,149.09638889,APAC,Wikidata_Clubs,
Q105535359,Women Australia,Australia,website,,,,APAC,Wikidata,
Q109361685,Woolworths,Australia,website,,,,APAC,Wikidata,
Q47000457,Woomera Theatre,Australia,theatre building,,-31.19895,136.82583,APAC,Wikidata,
Q109967662,Wyndham City Stadium,Australia,venue,,-37.841666666,144.629722222,APAC,Wikidata_Clubs,
Q28225082,York Town Hall,Australia,movie theater,,-31.8916,116.76818,APAC,Wikidata,
Q16953644,cyclingnews.com,Australia,website,,,,APAC,Wikidata,
Q28370773,cyclingtips.com,Australia,website,,,,APAC,Wikidata,
Q64380493,myschool,Australia,website,,,,APAC,Wikidata,
Q7018604,newmatilda.com,Australia,website,,,,APAC,Wikidata,
Q118225274,theCrag.com,Australia,website,,,,APAC,Wikidata,
Q57894909,undercover.fm,Australia,website,,,,APAC,Wikidata,
Q8036706,worldnomads.com,Australia,website,,,,APAC,Wikidata,
Q120061370,www.acmi.net.au,Australia,website,,,,APAC,Wikidata,
Q137807394,Yuehai Cultural and Sports Center,China,theatre building,,,,APAC,Wikidata,
Q110248354,AGW Bharat,India,website,,,,APAC,Wikidata,
Q135276513,AMU Marketplace,India,website,,,,APAC,Wikidata,
Q22032205,Abhay Prashal Indoor Stadium,India,arena,10000,22.724993,75.877749,APAC,Wikidata_Premium,http://abhayprashal.com/index.php
Q138358690,Accounting Education University – Official Website,India,website,,,,APAC,Wikidata,
Q34501489,Amar Talkies,India,movie theater,,,,APAC,Wikidata,
Q125935493,Anil Agarwal Stadium,India,venue,,27.110555555,75.836111111,APAC,Wikidata_Clubs,
Q24928074,Annasaheb Magar PCMC Stadium,India,stadium,5000,18.6364746,73.8198495,APAC,Wikidata_Premium,
Q121046757,Apsara Theatre,India,venue,,,,APAC,Wikidata_Clubs,
Q24264203,Arré,India,website,,,,APAC,Wikidata,
Q34501498,Ashok Talkies,India,movie theater,,,,APAC,Wikidata,
Q4808724,Assembly rooms theatre,India,theatre building,,11.41484,76.70829,APAC,Wikidata,
Q4811740,Astroturf Hockey Stadium,India,stadium,5000,23.388889,85.329167,APAC,Wikidata_Premium,
Q109567634,Avanti Cinema,India,website,,,,APAC,Wikidata,
Q17586369,Baan theatre,India,theatre building,,,,APAC,Wikidata,
Q24928029,Babu Banarasi Das Indoor Stadium,India,arena,5000,26.853264,80.980177,APAC,Wikidata_Premium,http://badmintonasia.org/who-we-are/member-associations/south-asia/india/
Q4849632,Bal Gandharva Ranga Mandir,India,theatre building,,18.5224,73.8486,APAC,Wikidata,https://www.pmc.gov.in/en/bal-gandharva-ranga-mandir
Q24942149,Balbir Singh Juneja Indoor Stadium,India,arena,4000,21.235,81.63,APAC,Wikidata_Premium,http://www.cgolympic.org/Default
Q4855048,Bangalore Hockey Stadium,India,stadium,7000,12.961684,77.600642,APAC,Wikidata_Premium,
Q24748108,Bharat Heavy Electrical Ltd Sports Complex,India,venue,,23.225,77.455,APAC,Wikidata_Clubs,http://www.espncricinfo.com/india/content/ground/58496.html
Q13119416,Bharat Natya Mandir,India,theatre building,,18.51097,73.84919,APAC,Wikidata,
Q4901494,Bhavai,India,theatre building,,,,APAC,Wikidata,
Q24748138,Bhopal Sugar Industries Ground,India,venue,,23.209,77.076,APAC,Wikidata_Clubs,http://www.espncricinfo.com/ci/content/ground/58440.html
Q4907081,Bihar Times,India,website,,,,APAC,Wikidata,
Q28170044,BillDesk,India,website,,,,APAC,Wikidata,
Q73407077,Biodiversity of West Bengal,India,website,,,,APAC,Wikidata,
Q131008701,Birsa Munda Athletic Stadium,India,venue,,22.225,84.868,APAC,Wikidata_Clubs,
Q105972684,Birsa Munda International Hockey Stadium,India,venue,,22.243367,84.821355,APAC,Wikidata_Clubs,
Q110252386,BollyDad,India,website,,,,APAC,Wikidata,
Q4939834,Bollywood Hungama,India,website,,,,APAC,Wikidata,
Q97235725,BookMyShow,India,website,,,,APAC,Wikidata,
Q18110770,Brindabon Theatre,India,venue,,,,APAC,Wikidata_Clubs,http://www.brindabantheatre.tk/
Q107921285,Bullalo,India,website,,,,APAC,Wikidata,
Q110517117,Bulli Bai case,India,website,,,,APAC,Wikidata,
Q137177298,BusGhatal.in,India,website,,,,APAC,Wikidata,
Q22080329,CSR Sharma College Ground,India,venue,,,,APAC,Wikidata_Clubs,http://www.espncricinfo.com/india/content/ground/818283.html
Q131459703,CSpace,India,website,,,,APAC,Wikidata,
Q24933026,Campal Indoor Complex,India,venue,,15.489415425,73.810863681,APAC,Wikidata_Clubs,
Q15207463,Capitol Cinema,India,movie theater,,18.939343,72.834313,APAC,Wikidata,
Q34501293,Capitol Theatre,India,movie theater,,,,APAC,Wikidata,
Q119843038,Carry Trends,India,website,,,,APAC,Wikidata,
Q34501149,Casino Cinema,India,movie theater,,,,APAC,Wikidata,
Q42319211,Cauvery Theatre,India,movie theater,,,,APAC,Wikidata,
Q23035893,"Central College Ground, Bangalore",India,venue,,,,APAC,Wikidata_Clubs,http://www.espncricinfo.com/india/content/ground/57893.html
Q24748112,Central Gymkhana Ground,India,venue,,,,APAC,Wikidata_Clubs,http://www.espncricinfo.com/india/content/ground/58146.html
Q5073228,Chaplin Cinema,India,movie theater,,22.5615,88.3508,APAC,Wikidata,
Q104451592,Charu Guha Studio,India,venue,,22.574355555,88.366988888,APAC,Wikidata_Clubs,
Q48728463,Children's Arena,India,venue,,17.720527,83.319318,APAC,Wikidata_Clubs,
Q5105548,Chowdiah Memorial Hall,India,theatre building,1100,,,APAC,Wikidata,http://www.cmh.co.in
Q108214886,CineTalkers,India,website,,,,APAC,Wikidata,
Q114579761,Cinemaazi,India,website,,,,APAC,Wikidata,
Q66311730,Cinestaan,India,website,,,,APAC,Wikidata,
Q34501089,Cinépolis Aashima,India,movie theater,,23.18313,77.45658,APAC,Wikidata,
Q34501480,Cinépolis Seasons,India,movie theater,,18.51969,73.93127,APAC,Wikidata,
Q107413988,CoWin,India,website,,,,APAC,Wikidata,
Q24748109,Colliery Stadium,India,stadium,5000,,,APAC,Wikidata_Premium,http://www.espncricinfo.com/ci/content/ground/57972.html
Q24748054,Commerce College Ground,India,venue,,,,APAC,Wikidata_Clubs,http://www.espncricinfo.com/ci/content/ground/57848.html
Q29354979,Credihealth,India,website,,,,APAC,Wikidata,
Q21150978,Cricbuzz,India,website,,,,APAC,Wikidata,
Q34501271,Crown Theatre,India,movie theater,,,,APAC,Wikidata,
Q116973687,Cyber Olympiad Foundation,India,website,,,,APAC,Wikidata,
Q110738184,DailyO,India,website,,,,APAC,Wikidata,
Q60755949,Dengthuama Indoor Stadium,India,venue,,23.713,92.734,APAC,Wikidata_Clubs,
Q63185995,Docmed360,India,website,,,,APAC,Wikidata,
Q24748047,Dori Lal Agarawal Sports Stadium,India,stadium,5000,28.37747,79.43171,APAC,Wikidata_Premium,http://www.espncricinfo.com/india/content/ground/57917.html
Q34501620,Durga Theatre,India,movie theater,,,,APAC,Wikidata,
Q116866361,EZ Finder,India,website,,,,APAC,Wikidata,
Q34501315,Edward Theatre,India,movie theater,,18.945151521,72.82897318,APAC,Wikidata,
Q124053909,Ekana Football Stadium,India,venue,,26.8131,81.0201,APAC,Wikidata_Clubs,
Q34501238,Elite Cinema,India,movie theater,,22.5629291,88.3538589,APAC,Wikidata,
Q5395341,Eros Cinema,India,movie theater,1204,18.932130634,72.827869317,APAC,Wikidata,
Q34501424,Eros One Cinema,India,movie theater,,,,APAC,Wikidata,
Q15217115,Experimental Theater,India,theatre building,,18.9252,72.8199,APAC,Wikidata,
Q24747995,FACT Stadium,India,stadium,5000,15.35027778,75.14277778,APAC,Wikidata_Premium,http://www.espncricinfo.com/india/content/ground/58070.html
Q5431467,Fake IPL Player,India,website,,,,APAC,Wikidata,
Q111585479,Farson store,India,website,,,,APAC,Wikidata,
Q113690721,Film Companion,India,website,,,,APAC,Wikidata,
Q110068027,Filmee Keeda,India,website,,,,APAC,Wikidata,
Q135152615,Filmee Keeda,India,website,,,,APAC,Wikidata,
Q124563219,Filmymantra,India,website,,,,APAC,Wikidata,
Q138581539,Findcourse.io,India,website,,,,APAC,Wikidata,
Q73334350,FlowersofIndia.net,India,website,,,,APAC,Wikidata,
Q68946464,Fossbytes,India,website,,,,APAC,Wikidata,
Q17053129,Freecharge,India,website,,,,APAC,Wikidata,
Q135403471,Fresher Job Wala,India,website,,,,APAC,Wikidata,
Q17053204,G. Sankara Pillai Cultural Complex,India,venue,,,,APAC,Wikidata_Clubs,
Q96379018,"Gaiety Theatre, Shimla",India,theatre building,,31.1047,77.1738,APAC,Wikidata,
Q104673617,GeeksforGeeks,India,website,,,,APAC,Wikidata,
Q5570972,Globe Cinema,India,movie theater,,22.5591,88.3501,APAC,Wikidata,
Q17120825,Goa Broad Band Network,India,website,,,,APAC,Wikidata,
Q136708293,GoalSphere,India,website,,,,APAC,Wikidata,
Q34501188,Golcha Cinema Deluxe,India,movie theater,,,,APAC,Wikidata,
Q124097985,Griffy,India,website,,,,APAC,Wikidata,
Q19891628,Grofers,India,website,,,,APAC,Wikidata,
Q97185043,"Gurajada Kalakshetram, Visakhapatnam",India,venue,,17.720325,83.318467,APAC,Wikidata_Clubs,
Q24748099,"Gymkhana Ground, Bengaluru",India,venue,,,,APAC,Wikidata_Clubs,http://www.espncricinfo.com/ci/content/ground/57895.html
Q138469465,Hammerzz Makarena,India,nightclub,2000.0,15.5945954,73.7371153,APAC,Wikidata_Clubs,https://hammerzzmakarena.com
Q39056641,Harivansh Tana Bhagat Indoor Stadium,India,arena,4000,,,APAC,Wikidata_Premium,
Q112947089,Harvard Olympiad Foundation,India,website,,,,APAC,Wikidata,
Q5685327,Hawla Indoor Stadium,India,stadium,3000,,,APAC,Wikidata_Premium,
Q110535357,Hindi Olympiad Foundation,India,website,,,,APAC,Wikidata,
Q55613841,Hoichoi,India,website,,,,APAC,Wikidata,
Q5887965,HomeShop18,India,website,,,,APAC,Wikidata,
Q22080846,Hopscotch,India,website,,,,APAC,Wikidata,
Q34501100,INOX Capital Mall,India,movie theater,,23.16416,77.46885,APAC,Wikidata,
Q138412806,Image2Any,India,website,,,,APAC,Wikidata,
Q50658883,India Biodiversity Portal,India,website,,,,APAC,Wikidata,
Q123078775,India Schedule Species Database,India,website,,,,APAC,Wikidata,
Q42188920,Indian Foundation for Butterflies,India,website,,,,APAC,Wikidata,
Q73389793,Indian Medicinal Plants Database,India,website,,,,APAC,Wikidata,
Q3269725,Indira Gandhi Indoor Stadium,India,arena,14348,28.63111111,77.24944444,APAC,Wikidata_Premium,http://delhigovt.nic.in/ground.asp#arc6
Q109536615,"Indira Gandhi Stadium, Kohima",India,venue,,25.705833333,94.091666666,APAC,Wikidata_Clubs,
Q55614436,"Indoor Shooting Range, Kollam",India,venue,,,,APAC,Wikidata_Clubs,
Q24748130,Industrial Training Institute Ground,India,venue,,22.753,75.87,APAC,Wikidata_Clubs,http://www.espncricinfo.com/india/content/ground/58149.html
Q24747959,International Cricket Stadium,India,venue,,,,APAC,Wikidata_Clubs,http://www.espncricinfo.com/blank/content/ground/58245.html
Q16632762,International Hockey Stadium,India,stadium,13648,30.6909,76.7373,APAC,Wikidata_Premium,
Q24940051,JNU Stadium,India,venue,,,,APAC,Wikidata_Clubs,
Q34501632,Jagadamba Theatre,India,movie theater,,,,APAC,Wikidata,
Q20874628,Jaipal Singh Stadium,India,stadium,15000,23.63,85.5425,APAC,Wikidata_Premium,
Q17067441,Jose Theatre,India,venue,,10.522379,76.215527,APAC,Wikidata_Clubs,
Q24748011,Judges Field,India,venue,,26.189317,91.74905,APAC,Wikidata_Clubs,http://www.espncricinfo.com/india/content/ground/58112.html
Q6319406,Jyoti Cinema,India,movie theater,,22.5636,88.3535,APAC,Wikidata,
Q111962559,KASA Stadium,India,venue,,25.84653,93.4393168,APAC,Wikidata_Clubs,
Q34501176,KG Complex,India,movie theater,,,,APAC,Wikidata,
Q15232594,Kaivalyadhama Health and Yoga Research Center,India,venue,,18.761,73.415,APAC,Wikidata_Clubs,http://www.kdham.com
Q34501541,Kalaiarangam Cinema,India,movie theater,,,,APAC,Wikidata,
Q128995940,Kalinga Hockey Stadium,India,venue,,20.290917,85.824991,APAC,Wikidata_Clubs,
Q6352873,"Kalinga Sports Complex, Bhubaneswar",India,stadium,12000,20.290916666,85.825,APAC,Wikidata_Premium,
Q34501333,Kalpana Cinema,India,movie theater,,,,APAC,Wikidata,
Q34501641,Kameswari & Kinnera Twin Theaters,India,movie theater,,,,APAC,Wikidata,
Q23035598,Kamla Club Ground,India,venue,,,,APAC,Wikidata_Clubs,http://www.espncricinfo.com/india/content/ground/58207.html
Q6365381,Kanteerava Indoor Stadium,India,stadium,4000,12.968819,77.591308,APAC,Wikidata_Premium,
Q137185822,Karnataka Kalamandira,India,theatre building,,12.311722,76.637614,APAC,Wikidata,
Q34501166,Karpagam Theatres,India,movie theater,,,,APAC,Wikidata,
Q134443995,Kerala Events,India,website,,,,APAC,Wikidata,
Q104760090,Kiddaan,India,website,,,,APAC,Wikidata,
Q6412565,Kingdom of Dreams,India,venue,,28.46805556,77.06916667,APAC,Wikidata_Clubs,
Q6416261,Kirtu,India,website,,,,APAC,Wikidata,
Q15238600,Kishore Bharati Krirangan,India,stadium,12000,22.4942,88.3945,APAC,Wikidata_Premium,
Q123419133,Kitty Su,India,nightclub,,28.63136,77.22709,APAC,Wikidata_Clubs,
Q6426300,Koimoi,India,website,,,,APAC,Wikidata,
Q22952134,Koramangala Indoor Stadium,India,venue,,,,APAC,Wikidata_Clubs,
Q48732953,"Kottappadi Football Stadium, Malappuram",India,stadium,10000,,,APAC,Wikidata_Premium,
Q124002374,Kruzty,India,website,,,,APAC,Wikidata,
Q34501551,LA Cinemas,India,movie theater,,,,APAC,Wikidata,
Q131838827,LUCA Science Portal,India,website,,,,APAC,Wikidata,
Q34501282,Laxmi Talkies,India,movie theater,,,,APAC,Wikidata,
Q6541667,Liberty Cinema,India,movie theater,,18.94149835,72.827259982,APAC,Wikidata,
Q6546328,Lighthouse Cinema,India,movie theater,,22.5597,88.3495,APAC,Wikidata,
Q98829564,Local Self Government Department,India,website,,,,APAC,Wikidata,
Q24748086,MRF Pachyappas Ground,India,venue,,,,APAC,Wikidata_Clubs,http://www.espncricinfo.com/ci/content/ground/323582.html
Q42957923,Made with Love in India,India,website,,,,APAC,Wikidata,
Q108166688,Maharaja Umaid Singh Stadium,India,venue,,26.29062,73.02985,APAC,Wikidata_Clubs,
Q23035850,Maharaja of Benares Palace Ground,India,venue,,,,APAC,Wikidata_Clubs,http://www.espncricinfo.com/india/content/ground/58529.html
Q21809579,Maharana Bhupal Stadium,India,stadium,15000,24.578229,73.712396,APAC,Wikidata_Premium,
Q24907107,Maharana Pratap Khel Gaon,India,venue,,24.6159027,73.7325317,APAC,Wikidata_Clubs,
Q34501506,Mahaveer Talkies,India,movie theater,,,,APAC,Wikidata,
Q6734042,Mahindra Hockey Stadium,India,stadium,8250,18.9375,72.826111,APAC,Wikidata_Premium,
Q5320999,Maratha Mandir,India,venue,,18.971183,72.822134,APAC,Wikidata_Clubs,
Q34501349,Maratha Mandir Theatre,India,movie theater,,,,APAC,Wikidata,
Q24748033,Marathwada University Ground,India,venue,,,,APAC,Wikidata_Clubs,
Q34501561,Maris 70mm,India,movie theater,,,,APAC,Wikidata,
Q34501575,Maris Rock Theatre,India,movie theater,,,,APAC,Wikidata,
Q110977336,Mascot Press India,India,website,,,,APAC,Wikidata,
Q57771503,Medtravels,India,website,,,,APAC,Wikidata,
Q55622683,Meesho,India,website,,,,APAC,Wikidata,
Q34501583,Mega Star Cinema,India,movie theater,,,,APAC,Wikidata,
Q34501155,Mekala Talkies,India,movie theater,,,,APAC,Wikidata,
Q6824536,Metro Cinema,India,movie theater,,22.5641,88.3494,APAC,Wikidata,
Q6824505,Metro INOX,India,movie theater,,18.94294444,72.82879722,APAC,Wikidata,
Q34501523,Milan Talkies,India,movie theater,,,,APAC,Wikidata,
Q104815029,Millat Times,India,website,,,,APAC,Wikidata,
Q580740,Minerva Theatre,India,theatre building,,22.59027778,88.36194444,APAC,Wikidata,
Q65947857,Mojarto,India,website,,,,APAC,Wikidata,
Q34501469,Moreshwar Big Cinemas,India,movie theater,,,,APAC,Wikidata,
Q34501115,Multiplex Fun Cinema,India,movie theater,,,,APAC,Wikidata,
Q28154049,Mumbai Football Arena,India,venue,,19.129449,72.836158833,APAC,Wikidata_Clubs,
Q137785454,MyInvestmentIdeas,India,website,,,,APAC,Wikidata,
Q63084783,MyNeta.info,India,website,,,,APAC,Wikidata,
Q110131095,Naihati Stadium,India,venue,,22.89304,88.42594,APAC,Wikidata_Clubs,
Q24747980,Najafgarh Stadium,India,venue,,28.61111111,76.98861111,APAC,Wikidata_Clubs,
Q6963179,Nandan,India,movie theater,,22.5421,88.3455,APAC,Wikidata,
Q131425693,National Cybercrime Reporting Portal,India,website,,,,APAC,Wikidata,
Q17078142,"National Media Centre, New Delhi",India,venue,,28.6183799,77.2169529,APAC,Wikidata_Clubs,
Q118912503,National Platform for Language Technology,India,website,,,,APAC,Wikidata,
Q34501414,National Talkies,India,movie theater,,,,APAC,Wikidata,
Q28154817,Nehru Maidan,India,venue,,12.8625,74.8386,APAC,Wikidata_Clubs,
Q24748061,"Nehru Stadium, Durgapur",India,stadium,10000,23.5654,87.3032,APAC,Wikidata_Premium,https://cricketarchive.com/Archive/Grounds/14/4410.html
Q24747993,"Nehru Stadium, Hubli",India,stadium,15000,15.35027778,75.14277778,APAC,Wikidata_Premium,http://www.espncricinfo.com/india/content/ground/58134.html
Q24748025,"Nehru Stadium, Shimoga",India,stadium,5000,,,APAC,Wikidata_Premium,http://www.espncricinfo.com/india/content/ground/58496.html
Q6998605,Netaji Indoor Stadium,India,stadium,12000,22.56612778,88.34166667,APAC,Wikidata_Premium,
Q24748060,Netaji Subhas Chandra Bose Stadium,India,stadium,5000,,,APAC,Wikidata_Premium,https://cricketarchive.com/Archive/Grounds/14/4059.html
Q7007106,New Empire Cinema,India,movie theater,,22.5605,88.3493,APAC,Wikidata,
Q16466709,New Empire Cinema,India,movie theater,,18.938704514,72.834205992,APAC,Wikidata,
Q34501433,Odeon Big Cinemas,India,movie theater,,28.63427,77.22106,APAC,Wikidata,
Q24927973,Oil India Ground,India,venue,,,,APAC,Wikidata_Clubs,
Q118954316,Oksurya,India,website,,,,APAC,Wikidata,
Q114567478,OneCricket,India,website,,,,APAC,Wikidata,
Q113641627,Onmanorama,India,website,,,,APAC,Wikidata,
Q16196790,Open Government Data Platform India,India,website,,,,APAC,Wikidata,
Q53673411,Ornate Solar,India,website,,,,APAC,Wikidata,
Q134738955,OrxCash.com,India,website,,,,APAC,Wikidata,
Q24748006,Osmania College Ground,India,venue,,,,APAC,Wikidata_Clubs,http://osmaniacollegekurnool.com/
Q23073954,Oval Ground,India,venue,,18.9294349,72.8289735,APAC,Wikidata_Clubs,http://www.elphinstonecollege.ac.in/
Q7118617,PCMC Hockey Stadium,India,stadium,5000,18.630416666,73.825944444,APAC,Wikidata_Premium,
Q23073956,PJ Hindu Gymkhana Ground,India,venue,,18.9466993,72.820985,APAC,Wikidata_Clubs,https://cricketarchive.com/Archive/Grounds/14/4305.html
Q34501128,PVR Aura Bhopal,India,movie theater,,23.18899,77.43414,APAC,Wikidata,
Q34501065,PVR Nexus Koramangala,India,movie theater,,12.9345,77.61143,APAC,Wikidata,
Q34501077,PVR Orion Cinemas,India,movie theater,,13.011,77.55504,APAC,Wikidata,
Q34501370,PVR Phoenix,India,movie theater,,18.99517,72.82398,APAC,Wikidata,
Q34501442,PVR Plaza Cinema,India,movie theater,,28.63501,77.21961,APAC,Wikidata,
Q112663024,Pad.ma,India,website,,,,APAC,Wikidata,
Q7134255,Paradise Cinema,India,movie theater,,22.5668,88.3496,APAC,Wikidata,
Q138667159,Parenting Quotient,India,website,,,,APAC,Wikidata,
Q24748096,Parsi Gymkhana Ground,India,venue,,18.944671,72.823272,APAC,Wikidata_Clubs,https://cricketarchive.com/Archive/Grounds/14/4304.html
Q7139974,"Parsi Gymkhana, Marine Drive",India,venue,,18.9448,72.8235,APAC,Wikidata_Clubs,https://parseegymkhana.in
Q60642664,Penguin India,India,website,,,,APAC,Wikidata,
Q34501404,Picture Palace,India,movie theater,,,,APAC,Wikidata,
Q86045951,Pinmarq,India,website,,,,APAC,Wikidata,
Q7196493,Pinstorm,India,website,,,,APAC,Wikidata,
Q113961539,Planet Bollywood,India,website,,,,APAC,Wikidata,
Q11121865,Plaza Theatre (Bangalore),India,theatre building,,12.9751,77.606,APAC,Wikidata,
Q107552688,Poem Writer Space,India,website,,,,APAC,Wikidata,
Q55643321,Policybazaar,India,website,,,,APAC,Wikidata,
Q24748035,Poona Gymkhana Ground,India,venue,,,,APAC,Wikidata_Clubs,http://www.espncricinfo.com/fantasy/content/ground/58386.html
Q7228890,Poothan and Thira,India,theatre building,,,,APAC,Wikidata,
Q24748010,Port Trust Diamond Jubilee Stadium,India,stadium,5000,,,APAC,Wikidata_Premium,http://www.espncricinfo.com/india/content/ground/58543.html
Q126454089,Postal GIS,India,website,,,,APAC,Wikidata,
Q7238450,Prasads IMAX,India,movie theater,,17.412842,78.465879,APAC,Wikidata,
Q122212222,Premabhai Hall,India,theatre building,,23.02383,72.58215,APAC,Wikidata,
Q7245963,Prithvi Theatre,India,theatre building,,19.10622,72.82572,APAC,Wikidata,
Q7246463,Priya Cinema,India,movie theater,,22.518,88.3544,APAC,Wikidata,
Q24747913,Punjab Agricultural University Stadium,India,stadium,10000,,,APAC,Wikidata_Premium,
Q113499205,Punjabi Source,India,website,,,,APAC,Wikidata,
Q10918137,Q10918137,India,website,,,,APAC,Wikidata,
Q24748135,"Railway Ground, Ratlam",India,venue,,23.343,75.048,APAC,Wikidata_Clubs,http://www.espncricinfo.com/india/content/ground/58412.html
Q34501140,Raj Cinema,India,movie theater,,,,APAC,Wikidata,
Q7285323,"Raj Mandir Cinema, Jaipur",India,movie theater,,26.9154985,75.8101639,APAC,Wikidata,
Q42319069,Rajeshwari Theatre,India,movie theater,,,,APAC,Wikidata,
Q22032359,Rajinder Singh Institute Ground,India,venue,,,,APAC,Wikidata_Clubs,http://www.espncricinfo.com/ci/content/ground/57899.html
Q28446797,"Rajiv Gandhi International Indoor Stadium, Kottayam",India,venue,,,,APAC,Wikidata_Clubs,
Q34501596,Ramba Theatre,India,movie theater,,,,APAC,Wikidata,
Q7292595,Ranga Shankara,India,theatre building,320,12.911513,77.587053,APAC,Wikidata,http://www.rangashankara.org/
Q130281682,Ravindra Bhavan,India,theatre building,,,,APAC,Wikidata,
Q7296730,Ravindra Kalakshetra,India,theatre building,900,,,APAC,Wikidata,http://kalakshetra1.kannadasiri.co.in/
Q24942433,Ravindra Natya Grah,India,venue,,22.719,75.872,APAC,Wikidata_Clubs,
Q7307906,Regal Cinema,India,movie theater,,18.924618876,72.832460181,APAC,Wikidata,
Q29467531,Regal Theatre,India,movie theater,,28.63055556,77.21694444,APAC,Wikidata,
Q34501026,Relief Cinema,India,movie theater,,,,APAC,Wikidata,
Q135117282,RinuzMart,India,website,,,,APAC,Wikidata,
Q34501039,Roopalee Cinema,India,movie theater,,,,APAC,Wikidata,
Q7372457,Roxy Cinema,India,movie theater,,22.5622,88.3499,APAC,Wikidata,
Q3210038,Royal Opera House,India,theatre building,,18.956111,72.815556,APAC,Wikidata,
Q73947140,SPOT69.com,India,website,,,,APAC,Wikidata,
Q65058968,Sabuj Sathi Krirangan,India,stadium,6000,,,APAC,Wikidata_Premium,
Q23035864,Sadar Bazar Stadium,India,stadium,5000,,,APAC,Wikidata_Premium,http://www.espncricinfo.com/india/content/ground/57845.html
Q7408423,Samachar,India,website,,,,APAC,Wikidata,
Q39086138,Sanchari Theatre,India,venue,,,,APAC,Wikidata_Clubs,
Q34501217,Saptagiri 70mm Cinema,India,movie theater,,,,APAC,Wikidata,
Q13115183,School wiki,India,website,,,,APAC,Wikidata,
Q28169350,Schools of Equality,India,website,,,,APAC,Wikidata,
Q126810523,ScienceABC,India,website,,,,APAC,Wikidata,
Q97291167,SecondShaadi,India,website,,,,APAC,Wikidata,
Q24747940,Shaheed Bhagat Singh Stadium,India,stadium,10000,23.5329,87.305,APAC,Wikidata_Premium,
Q34501228,Shanti 70mm Cinema,India,movie theater,,,,APAC,Wikidata,
Q21161125,Shilaroo Hockey Stadium,India,stadium,15000,31.202,77.423,APAC,Wikidata_Premium,http://www.shimlaonline.in/city-guide/shilaroo-hockey-stadium-in-shimla
Q17080523,ShopClues,India,website,,,,APAC,Wikidata,
Q34501530,Shree Ram Talkies,India,movie theater,,,,APAC,Wikidata,
Q21935429,Shree Shiv Chhatrapati Sports Complex velodrome,India,venue,,18.574745,73.760984,APAC,Wikidata_Clubs,
Q56120618,Shubhapallaba,India,website,,,,APAC,Wikidata,
Q7547283,Snapdeal,India,website,,,,APAC,Wikidata,
Q34501605,Sona-Mina Cinema,India,movie theater,,,,APAC,Wikidata,
Q125800523,Sorkuvai Dictionary,India,website,,,,APAC,Wikidata,
Q24748090,"Sports Stadium, Berhampur",India,venue,,19.310794,84.788685,APAC,Wikidata_Clubs,http://www.espncricinfo.com/ci/content/ground/57928.html
Q135442852,Sportsdunia,India,website,,,,APAC,Wikidata,
Q120972781,Sri Padmanabha Theatre,India,venue,,8.516666666,76.933333333,APAC,Wikidata_Clubs,
Q121046115,Sridar Theatre,India,venue,,,,APAC,Wikidata_Clubs,
Q7600935,"Star Theatre, Kolkata",India,theatre building,,22.593638888,88.37045,APAC,Wikidata,
Q134499073,Story Network,India,website,,,,APAC,Wikidata,
Q7633458,Sudarshan Rangmanch,India,theatre building,,18.518347193,73.851852838,APAC,Wikidata,
Q34501259,Sudhi Theatre,India,movie theater,,,,APAC,Wikidata,
Q34501051,Sunset Drive-In Cinema,India,movie theater,,,,APAC,Wikidata,
Q7646398,Surjit Hockey Stadium,India,stadium,7000,31.343056,75.5575,APAC,Wikidata_Premium,
Q39050226,Swarna Bharathi Indoor Stadium,India,venue,,,,APAC,Wikidata_Clubs,https://gvmc.gov.in/gvmc/index.php/menu-styles/education/sports
Q65944364,Swiggy,India,website,,,,APAC,Wikidata,
Q28154322,TMA Pai International Convention Centre,India,venue,,,,APAC,Wikidata_Clubs,http://manipal.edu/mu/campus-life/around-campus/campus-facilities/convention-center.html
Q55634556,TRC Turf Ground,India,venue,,34.0742033,74.8253408,APAC,Wikidata_Clubs,
Q113632296,Tamil Bay,India,website,,,,APAC,Wikidata,
Q24748048,Tamil Nadu Agricultural University Ground,India,venue,,,,APAC,Wikidata_Clubs,http://www.espncricinfo.com/india/content/ground/58023.html
Q34501654,Tata Theater,India,movie theater,,,,APAC,Wikidata,
Q21161379,Tau Devi Lal Cricket Stadium,India,stadium,7000,28.442222222,77.036388888,APAC,Wikidata_Premium,http://panchkula.nic.in
Q7688613,Tau Devi Lal Stadium,India,stadium,12000,28.442222,77.036389,APAC,Wikidata_Premium,
Q60776072,Tau Devi Lal Stadium,India,venue,,30.685,76.869722222,APAC,Wikidata_Clubs,
Q24748042,Teerthanker Mahaveer University Ground,India,venue,,28.8247,78.6581,APAC,Wikidata_Clubs,
Q24748087,Telco Club Ground,India,venue,,,,APAC,Wikidata_Clubs,http://www.espncricinfo.com/ci/content/ground/58182.html
Q125296620,The Cults Bay,India,website,,,,APAC,Wikidata,
Q42195003,The Dutch Cemetery in Chinsurah,India,website,,,,APAC,Wikidata,
Q135109996,The Nikah Corner,India,website,,34.035169,74.823195,APAC,Wikidata,
Q42682854,The Scottish Cemetery in Bengal,India,website,,,,APAC,Wikidata,
Q39070361,The Wire,India,website,,,,APAC,Wikidata,
Q108266331,The Writers Community,India,website,,,,APAC,Wikidata,
Q24906469,Theatre Surjya,India,venue,,,,APAC,Wikidata_Clubs,
Q7802032,Tilak Maidan Stadium,India,stadium,12000,15.400575,73.815114,APAC,Wikidata_Premium,
Q7802042,Tilak Smarak Mandir,India,theatre building,,18.508244383,73.848844783,APAC,Wikidata_Concerts,
Q6024198,Times Internet,India,website,,,,APAC,Wikidata,
Q28154431,"Town Hall, Mangalore",India,venue,,,,APAC,Wikidata_Clubs,
Q24748027,Town Planning Authority Ground,India,venue,,,,APAC,Wikidata_Clubs,http://www.espncricinfo.com/india/content/ground/58062.html
Q1452577,Traditional Knowledge Digital Library,India,website,,,,APAC,Wikidata,
Q16632567,Triprayar Sports and Games Association Indoor Stadium,India,stadium,4000,,,APAC,Wikidata_Premium,
Q60760744,U S Mallya Indoor Stadium,India,venue,,12.8660419,74.8366858,APAC,Wikidata_Clubs,
Q47092721,Urdu Cartoon World,India,website,,,,APAC,Wikidata,
Q24748056,Vadodara International Cricket Stadium,India,venue,,,,APAC,Wikidata_Clubs,
Q65640660,Veblr,India,website,,,,APAC,Wikidata,
Q96105080,Veer Kunwar Singh Stadium,India,venue,,25.5614,84.6643,APAC,Wikidata_Clubs,
Q24748091,Vellyani Agricultural College Ground,India,venue,,,,APAC,Wikidata_Clubs,http://www.espncricinfo.com/ci/content/ground/58481.html
Q24928062,Vidarbha Hockey Association Stadium,India,stadium,5000,,,APAC,Wikidata_Premium,http://hockeyindia.org/news/hockey-india-inducts-vidarbha-hockey-association-in-its-fold.html
Q65926556,Vidwan,India,website,,,,APAC,Wikidata,
Q22080147,Vivekananda Nagar Indoor Sports Complex,India,venue,,21.181383228,79.077071714,APAC,Wikidata_Clubs,
Q24884920,Voot,India,website,,,,APAC,Wikidata,
Q34501461,Wave Cinemas Noida,India,movie theater,,28.56788,77.3231,APAC,Wikidata,
Q29467257,WeMove Theatre,India,venue,,,,APAC,Wikidata_Clubs,http://www.wemovetheatre.in
Q21161146,YS Raja Reddy Stadium,India,stadium,15000,,,APAC,Wikidata_Premium,http://www.espncricinfo.com/india/content/ground/543684.html
Q24942096,Yashwantrao Chavan Natya Gruha,India,theatre building,,18.502832031,73.812437898,APAC,Wikidata,
Q8052517,Yepme,India,website,,,,APAC,Wikidata,
Q24748131,Yeshwant Club Ground,India,venue,,22.724,75.876,APAC,Wikidata_Clubs,http://www.espncricinfo.com/ci/content/ground/58152.html
Q34501514,Yogiraj Cinema,India,movie theater,,,,APAC,Wikidata,
Q29025066,Youth Ki Awaaz,India,website,,,,APAC,Wikidata,
Q8066367,Zapak,India,website,,,,APAC,Wikidata,
Q8073715,Zomato,India,website,,,,APAC,Wikidata,
Q122943616,am,India,venue,30000.0,5.2958,82.8549,APAC,Wikidata_Clubs,
Q137900003,behindwoods.com,India,website,,,,APAC,Wikidata,
Q64829432,etrain.info,India,website,,,,APAC,Wikidata,
Q57313411,indiancine.ma,India,website,,,,APAC,Wikidata,
Q125562622,indianrail.gov.in,India,website,,,,APAC,Wikidata,
Q140676,rediff.com,India,website,,,,APAC,Wikidata,
Q138661904,sarkari rojgar,India,website,,,,APAC,Wikidata,
Q19896243,scroll.in,India,website,,,,APAC,Wikidata,
Q22281651,tamilstar.com,India,website,,,,APAC,Wikidata,
Q11188539,@police,Japan,website,,,,APAC,Wikidata,
Q11188898,ACT Mini Theater,Japan,theatre building,,,,APAC,Wikidata,
Q105329094,ALICENET,Japan,website,,,,APAC,Wikidata,
Q135411751,ATOM Tokyo Shinjuku,Japan,nightclub,2700.0,35.692944,139.705222,APAC,Wikidata_Clubs,https://atomshinjuku.com/
Q22127352,AWA,Japan,website,,,,APAC,Wikidata,
Q11617377,Adastria Mito Arena,Japan,arena,5000,36.380722,140.44925,APAC,Wikidata_Premium,https://www.shimz.co.jp/construction/mito/index.html
Q116836633,Agetsuchi Gekijo,Japan,theatre building,,,,APAC,Wikidata,
Q69542009,Ai Hall,Japan,theatre building,,34.780638888,135.420444444,APAC,Wikidata,
Q11256826,Aichi Prefectural Art Theater,Japan,theatre building,,35.170894,136.911356,APAC,Wikidata,
Q3543466,Aichi Prefectural Gymnasium,Japan,arena,7514,35.18308611,136.90256111,APAC,Wikidata_Premium,http://www.aichi-kentai.com/
Q18335522,AiiA Theater Tokyo,Japan,theatre building,,35.66530556,139.69905556,APAC,Wikidata,
Q107389350,Aiiro Cafe,Japan,venue,,,,APAC,Wikidata_Clubs,https://aliving.net/aiirocafe
Q16714480,Aizu Athletic Park Stadium,Japan,stadium,7300,37.46225,139.925694,APAC,Wikidata_Premium,http://aizu-sportspark.jp/facilities/a_rikujyou.html
Q17238811,Akabane Eiga Theatre,Japan,theatre building,,,,APAC,Wikidata,
Q17238813,Akabane Toei Theatre,Japan,theatre building,,,,APAC,Wikidata,
Q116675890,Akasaka RED THEATER,Japan,theatre building,,,,APAC,Wikidata,
Q110409522,Akita Arts Theatre,Japan,theatre building,,39.719694444,140.121861111,APAC,Wikidata,
Q45312519,All About,Japan,website,,,,APAC,Wikidata,
Q11318350,All-Gainare Yajin Stadium,Japan,stadium,7390,35.447725,133.3076861,APAC,Wikidata_Premium,http://www.yajin.jp/
Q4739118,Amagasaki Memorial Park Stadium,Japan,stadium,10000,34.730278,135.421944,APAC,Wikidata_Premium,
Q11331499,Amagasaki Youth Creative Theater of Hyogo Prefecture,Japan,theatre building,,34.750203,135.421933,APAC,Wikidata,
Q10846439,Amazon.co.jp,Japan,website,,,,APAC,Wikidata,
Q2891107,Anatomography,Japan,website,,,,APAC,Wikidata,
Q11284323,AnimateTV,Japan,website,,,,APAC,Wikidata,
Q113622504,Anime TAIZEN,Japan,website,,,,APAC,Wikidata,
Q88263784,Anjochiku Kibonooka Gymnasium,Japan,venue,,34.90244444,137.07402778,APAC,Wikidata_Clubs,
Q55604000,Anjō City Gymnasium,Japan,venue,,34.97183056,137.08996944,APAC,Wikidata_Clubs,
Q4778641,Aoikan,Japan,movie theater,,35.6711,139.744,APAC,Wikidata,
Q4778675,Aomori Stadium,Japan,stadium,10010,40.82861111,140.77777778,APAC,Wikidata_Premium,
Q11662291,Aomori Stadium,Japan,stadium,17000,40.80656111,140.7075889,APAC,Wikidata_Premium,http://www.sport-aoimori.jp/
Q11661222,Aoyama Theatre,Japan,theatre building,,35.662306,139.707417,APAC,Wikidata_Concerts,http://www.aoyama.org/
Q11282829,Aqua Dome Kumamoto,Japan,arena,6400,32.7633,130.6678,APAC,Wikidata_Premium,https://kc-sks.com/aqua/
Q1812023,Aqua Wing Arena,Japan,arena,6000,36.660771,138.233153,APAC,Wikidata_Premium,
Q3299452,Ariake Coliseum,Japan,arena,10000,35.636388888,139.790277777,APAC,Wikidata_Premium,https://www.tptc.co.jp/park/02_03/colosseum/04
Q55532859,Ariake Gymnastics Centre,Japan,arena,1200,35.6414,139.7917,APAC,Wikidata_Premium,
Q11285648,Art Complex 1928,Japan,theatre building,,35.008478,135.766539,APAC,Wikidata,https://www.gear.ac/access/theatre/
Q123139107,Art Platform Japan,Japan,website,,,,APAC,Wikidata,
Q11511748,Asahikawa City General Gymnasium,Japan,venue,,43.79305556,142.37638889,APAC,Wikidata_Clubs,
Q11350472,Asakusa Rockza,Japan,theatre building,,35.714194,139.793111,APAC,Wikidata,http://rockza.net/
Q11636776,Ashikaga Athletic stadium,Japan,stadium,7500,36.3448,139.461,APAC,Wikidata_Premium,http://undoujou.ashikaga-mbs.or.jp/index.php/rikuzyo
Q35134503,Ashiya Theater,Japan,movie theater,,,,APAC,Wikidata,
Q75314966,Astronomical Data Archives Center,Japan,website,,,,APAC,Wikidata,
Q48752564,Atelier Q,Japan,theatre building,,35.6405,139.601166666,APAC,Wikidata,
Q65272461,Awaji Doll Joruri Pavilion,Japan,theatre building,,,,APAC,Wikidata,
Q138025295,BISMaL,Japan,website,,,,APAC,Wikidata,
Q35134815,Benny Decker Theater,Japan,movie theater,,,,APAC,Wikidata,
Q180156,Big Hat,Japan,arena,5000,36.629722,138.195833,APAC,Wikidata_Premium,
Q11192401,Bitem,Japan,website,,,,APAC,Wikidata,
Q11191533,BookWalker,Japan,website,,,,APAC,Wikidata,
Q11425630,Botchan,Japan,theatre building,,,,APAC,Wikidata,
Q11335172,Broadway Music Theatre,Japan,theatre building,,,,APAC,Wikidata,
Q583055,Bunkamura,Japan,theatre building,,35.660833,139.695,APAC,Wikidata,https://www.bunkamura.co.jp/
Q109594235,Bunshun Online,Japan,website,,,,APAC,Wikidata,
Q35134596,Butler Theater,Japan,movie theater,,,,APAC,Wikidata,
Q55249694,Buyee,Japan,website,,,,APAC,Wikidata,
Q65770878,CDJournal,Japan,website,,,,APAC,Wikidata,
Q11307451,CINE LIBRE,Japan,movie theater,,,,APAC,Wikidata,
Q28068492,CINEMA Chupki TABATA,Japan,movie theater,,35.74113889,139.76172222,APAC,Wikidata,
Q18337022,CINEMA IRIS,Japan,movie theater,,41.790639,140.752806,APAC,Wikidata,
Q28689713,CINEMA e-ra,Japan,movie theater,152,34.70766667,137.72961111,APAC,Wikidata,
Q17212416,CINEX,Japan,movie theater,,35.418472,136.75825,APAC,Wikidata,
Q11193090,CNGK,Japan,theatre building,,35.65955556,139.69827778,APAC,Wikidata,
Q11297171,Canal City Theater,Japan,theatre building,,33.590602,130.410756,APAC,Wikidata,http://www.canalcitygekijo.com/
Q20042682,Century Cinema,Japan,movie theater,,35.163559,136.908093,APAC,Wikidata,
Q22130776,Champion Cross,Japan,website,,,,APAC,Wikidata,
Q11405575,Chikuma Tokura Gymnasium,Japan,venue,,36.47805556,138.15336111,APAC,Wikidata_Clubs,
Q11405329,Chiyodakan,Japan,theatre building,,,,APAC,Wikidata,
Q108015745,Chojamachi RaBBit,Japan,theatre building,,,,APAC,Wikidata,
Q11365112,Chuei,Japan,theatre building,,,,APAC,Wikidata,http://www.e-asakusa.net/
Q35134652,Chueigekijo Theater,Japan,movie theater,,35.6894875,139.6917064,APAC,Wikidata,
Q11365081,Chunichi Theatre,Japan,theatre building,,35.168414,136.90965,APAC,Wikidata,http://www.chunichi-theatre.com
Q11307454,Cine Nouveau,Japan,movie theater,,34.674306,135.475444,APAC,Wikidata,
Q18337021,Cinefuku Daikokuza,Japan,theatre building,,34.488286,133.368736,APAC,Wikidata,
Q21653243,Cinema 5,Japan,movie theater,,,,APAC,Wikidata,
Q11307431,Cinema Box Taiyo,Japan,movie theater,,33.169028,129.721556,APAC,Wikidata,
Q11307438,Cinema Clair,Japan,movie theater,,34.66447222,133.93066667,APAC,Wikidata,
Q11307439,Cinema Jack and Betty,Japan,movie theater,,35.44036111,139.62627778,APAC,Wikidata,
Q22118947,Cinema Novecento,Japan,movie theater,,35.45211111,139.61633333,APAC,Wikidata,
Q35134665,Cinema Rise,Japan,movie theater,,35.6605134,139.69904,APAC,Wikidata,
Q11307422,Cinema Skhole,Japan,movie theater,,35.169667,136.878917,APAC,Wikidata,
Q11307423,Cinema Town Kohnan,Japan,movie theater,,34.602833,133.940528,APAC,Wikidata,
Q24868346,Cinematheque Takasaki,Japan,movie theater,,36.32383,139.00706,APAC,Wikidata,
Q5139096,Coca-Cola West Hiroshima Stadium,Japan,stadium,13800,34.375666,132.422939,APAC,Wikidata_Premium,
Q134548587,Coffee Beans Laboratory,Japan,website,,,,APAC,Wikidata,
Q11349872,Collaborative Reference Database,Japan,website,,,,APAC,Wikidata,
Q106274611,Comic Brise,Japan,website,,,,APAC,Wikidata,
Q106330607,Comic PASH!,Japan,website,,,,APAC,Wikidata,
Q106315565,Comic Ride,Japan,website,,,,APAC,Wikidata,
Q48753811,ComicFesta,Japan,website,,,,APAC,Wikidata,
Q114356141,Comiplex,Japan,website,,,,APAC,Wikidata,
Q123419667,Contact Tokyo,Japan,nightclub,,35.65847,139.69772,APAC,Wikidata_Clubs,
Q131319357,Cookpad,Japan,website,,,,APAC,Wikidata,
Q104552771,Cotton Club,Japan,nightclub,,35.678608547,139.765395529,APAC,Wikidata_Clubs,http://www.cottonclubjapan.co.jp/jp/
Q105237617,Cultural Heritage Online,Japan,website,,,,APAC,Wikidata,
Q11195090,Cure,Japan,website,,,,APAC,Wikidata,
Q92364085,Cycomics,Japan,website,,,,APAC,Wikidata,
Q107026114,DIVERSITY IN THE ARTS TODAY,Japan,website,,,,APAC,Wikidata,
Q1053553,DNA Data Bank of Japan,Japan,website,,,,APAC,Wikidata,
Q112086015,DX Tohji,Japan,theatre building,,,,APAC,Wikidata,
Q22119210,Daigeki Kaikan (Himeji),Japan,movie theater,,34.82983333,134.68825,APAC,Wikidata,
Q11436111,Daitokyo,Japan,theatre building,,,,APAC,Wikidata,
Q11395551,Demae-can,Japan,website,,,,APAC,Wikidata,
Q5257897,Denkikan,Japan,movie theater,,,,APAC,Wikidata,
Q11660645,Dentsū Shiki Theatre Umi,Japan,theatre building,1216.0,35.665028,139.762333,APAC,Wikidata_Concerts,https://www.shiki.jp/zh-tw/theatres/0905/
Q11320516,Digital Typhoon,Japan,website,,,,APAC,Wikidata,
Q10267901,Dokoo,Japan,website,,,,APAC,Wikidata,
Q11641863,Dotonbori Theater,Japan,theatre building,,35.659,139.69708333,APAC,Wikidata_Concerts,
Q107389301,Dragon Men,Japan,venue,,,,APAC,Wikidata_Clubs,https://www.dragonmen69.com
Q5318379,DyDo Drinco Ice Arena,Japan,arena,2482,35.728056,139.565278,APAC,Wikidata_Premium,https://www.seibu-leisure.co.jp/icearena/index.html
Q11197549,EDINET,Japan,website,,,,APAC,Wikidata,
Q11345967,EUROSPACE,Japan,movie theater,,35.659278055,139.695193888,APAC,Wikidata,
Q136599629,EXPO Hall “Shining Hat”,Japan,theatre building,1900,34.6475,135.3876,APAC,Wikidata,
Q136600713,EXPO National Day Hall “Ray Garden”,Japan,theatre building,,34.6468,135.3867,APAC,Wikidata,
Q11492401,Ebisu Echo Theater,Japan,theatre building,,,,APAC,Wikidata,
Q2654126,Ecopa Arena,Japan,arena,10000,34.745236,137.968723,APAC,Wikidata_Premium,
Q5340173,Edogawa Stadium,Japan,stadium,6950,35.655278,139.8525,APAC,Wikidata_Premium,
Q11550135,Eirakukan,Japan,theatre building,,35.461972,134.871528,APAC,Wikidata,http://eirakukan.com/
Q17218585,Ekinet,Japan,website,,,,APAC,Wikidata,
Q106018769,Emma's theatre,Japan,theatre building,,35.870972222,139.324472222,APAC,Wikidata,
Q35134678,Empire Theatre,Japan,movie theater,,35.6815595,139.7432769,APAC,Wikidata,
Q11291373,Engel Kwan,Japan,theatre building,,,,APAC,Wikidata,
Q43096817,Esplanade Studio Theatre,Japan,theatre building,,,,APAC,Wikidata,
Q47535818,FIND/47,Japan,website,,,,APAC,Wikidata,
Q35134827,Fleet Theater,Japan,movie theater,,,,APAC,Wikidata,
Q11610478,Frontier Soccer Field,Japan,venue,2100.0,35.669694,140.012444,APAC,Wikidata_Clubs,https://www.city.narashino.lg.jp/shisetu/sports/akitu_soccer.html
Q11486011,Fuchū-no-Mori Art Theater,Japan,theatre building,,35.673611,139.4925,APAC,Wikidata,http://www.fuchu-cpf.or.jp/theater/
Q55639756,Fujieda Higashi High School Ground,Japan,venue,,,,APAC,Wikidata_Clubs,
Q11624378,Fujieda Soccer Stadium,Japan,stadium,13000,34.88146944,138.2327639,APAC,Wikidata_Premium,
Q11456275,Fujikan,Japan,theatre building,,,,APAC,Wikidata,
Q11560286,Fukaya Cinema,Japan,movie theater,57,36.195889,139.278139,APAC,Wikidata,
Q18339119,Fukuchiyama Cinema,Japan,movie theater,,35.30205556,135.12430556,APAC,Wikidata,
Q11591749,Fukui Prefectural Athletic Stadium,Japan,stadium,17000,36.0534,136.185,APAC,Wikidata_Premium,
Q11592232,Fukuoka Citizens Gymnasium,Japan,venue,,33.60358333,130.41652778,APAC,Wikidata_Clubs,http://www.sports-fukuokacity.or.jp/facility/gym_fukuoka.html
Q11592424,Fukuoka Toei Plaza,Japan,theatre building,,,,APAC,Wikidata_Concerts,
Q11592096,Fukuyama Daiich Theater,Japan,theatre building,,34.491174,133.368211,APAC,Wikidata_Concerts,
Q5507757,Fukuyama Takegahana Stadium,Japan,stadium,10081,34.440833,133.395278,APAC,Wikidata_Premium,http://www.city.fukuyama.hiroshima.jp/sports/sports/riku-a.html
Q11480802,Fuse Line Cinema,Japan,movie theater,,34.664361,135.560889,APAC,Wikidata,
Q18339152,Fushimi Millionza,Japan,movie theater,,35.170102,136.899143,APAC,Wikidata,
Q48756630,Fuso Theater,Japan,theatre building,,35.36222222,136.91069444,APAC,Wikidata,
Q135188680,G123,Japan,website,,,,APAC,Wikidata,
Q11201065,GIGAZINE,Japan,website,,,,APAC,Wikidata,
Q1007089,GREE,Japan,website,,,,APAC,Wikidata,
Q11295933,Gadget News,Japan,website,,,,APAC,Wikidata,
Q5517009,"Gaiety Theatre, Yokohama",Japan,theatre building,,35.439694444,139.651722222,APAC,Wikidata_Concerts,
Q16141818,Galaxy Theatre,Japan,theatre building,,35.623472,139.75125,APAC,Wikidata,
Q105535081,Gangan Online,Japan,website,,,,APAC,Wikidata,
Q28689797,Gardens' Cinema,Japan,movie theater,,31.59091667,130.55702778,APAC,Wikidata,
Q11653634,Gifu Nagaragawa Medow,Japan,venue,,35.445167,136.766222,APAC,Wikidata_Clubs,
Q56692108,Gion Corner,Japan,theatre building,,35.001388888,135.775611111,APAC,Wikidata,
Q11588424,Gion Kaikan,Japan,theatre building,,35.004639,135.777194,APAC,Wikidata,
Q28684738,GlyphWiki,Japan,website,,,,APAC,Wikidata,
Q35134697,Grant Heights Theater,Japan,movie theater,,35.6894875,139.6917064,APAC,Wikidata,
Q11557557,Green Arena,Japan,venue,,34.79811111,137.75825,APAC,Wikidata_Clubs,
Q11298273,Gyutto,Japan,website,,,,APAC,Wikidata,
Q5640353,Hakata-za,Japan,theatre building,1454,33.595703,130.406477,APAC,Wikidata,https://www.hakataza.co.jp/
Q20743529,Hakodate Arena,Japan,arena,5000,41.781944444,140.783333333,APAC,Wikidata_Premium,http://www.zaidan-hakodate.com/arena/
Q5640619,Hakucho Arena,Japan,arena,3015,42.639342,141.606589,APAC,Wikidata_Premium,http://www.tomakomai-taikyo.or.jp/hakucho_top.html
Q11408884,Hakuhinkan Theater,Japan,theatre building,,35.66783333,139.761,APAC,Wikidata,http://www.hakuhinkan.co.jp/theater/
Q17230929,Hakuseiza,Japan,theatre building,,,,APAC,Wikidata,
Q523387,Hamamatsu Arena,Japan,arena,8000,34.717778,137.766667,APAC,Wikidata_Premium,https://www.hamamatsu-arena.jp/
Q11327056,Hangar Stage,Japan,theatre building,,35.625802777,139.882375,APAC,Wikidata,
Q18338850,Hatchoza,Japan,movie theater,,34.393472,132.462778,APAC,Wikidata,
Q134599095,Heiwa Shimin Park Noh Theater,Japan,theatre building,,33.240198,131.635119,APAC,Wikidata,
Q11587771,Hekinan City Arts and Culture Hall,Japan,theatre building,,34.90345,136.993567,APAC,Wikidata,
Q55639880,Hibiya Park Ground,Japan,venue,,,,APAC,Wikidata_Clubs,http://www.tokyo-park.or.jp/park/format/index037.html
Q35134713,Hibiya Theater,Japan,movie theater,,,,APAC,Wikidata,
Q17229918,Higashijujo Odeon,Japan,theatre building,,,,APAC,Wikidata,
Q11504799,Hinode Kaikan,Japan,movie theater,,,,APAC,Wikidata,
Q17229987,Hiroo Kinema,Japan,theatre building,,,,APAC,Wikidata,
Q55639889,Hiroshima Kokutaiji High School Stadium,Japan,venue,,,,APAC,Wikidata_Clubs,
Q1202161,Hiroshima Prefectural Sports Center,Japan,arena,500,34.399444,132.455278,APAC,Wikidata_Premium,https://h-jigyoudan.or.jp/sports-center/
Q6432196,Hiroshima Sogo Ground Baseball Park,Japan,stadium,13000,34.37783333,132.423,APAC,Wikidata_Premium,
Q3301914,Hiroshima Sun Plaza,Japan,arena,6052,34.370353,132.394577,APAC,Wikidata_Premium,http://www.hiroshima-sunplaza.or.jp/
Q5871633,Hitachi Athletic Stadium,Japan,stadium,8464,36.57575,140.648639,APAC,Wikidata_Premium,
Q55613812,Hitachi City Ikenokawa Sakura Arena,Japan,venue,,36.57683333,140.64794444,APAC,Wikidata_Clubs,http://www.city.hitachi.lg.jp/shisetsu/010/001/arenaopen.html
Q5871709,Hitachinaka City Stadium,Japan,stadium,15000,36.391944,140.586111,APAC,Wikidata_Premium,
Q120336199,Hitosara,Japan,website,,,,APAC,Wikidata,
Q5875192,Hobonichi,Japan,website,,,,APAC,Wikidata,
Q11633759,Hoei Eiga Gekijo,Japan,theatre building,,,,APAC,Wikidata_Concerts,
Q3139216,Hokkaido Prefectural Sports Center,Japan,arena,8000,43.044277777,141.376583333,APAC,Wikidata_Premium,http://www.kitayell.jp
Q11402640,Hokkaido Shiki Theatre,Japan,theatre building,,43.062361,141.358167,APAC,Wikidata,
Q11519985,Honda Theater,Japan,theatre building,,35.661583,139.668306,APAC,Wikidata,
Q28690257,Hondo Daiichi Eigeki,Japan,movie theater,,,,APAC,Wikidata,
Q5896329,Honjō Athletic Stadium,Japan,stadium,10202,33.89027778,130.73166667,APAC,Wikidata_Premium,http://www.honjo-park.com/
Q117305747,Hulu Japan,Japan,website,,,,APAC,Wikidata,
Q11393100,Hyogo Performing Arts Center,Japan,theatre building,,34.7436,135.356,APAC,Wikidata,
Q124460245,IG Arena,Japan,arena,17000,35.19,136.9027,APAC,Wikidata_Premium,https://ig-arena.jp/
Q48750542,IHI Stage Around Tokyo,Japan,theatre building,,35.647444,139.785083,APAC,Wikidata,
Q124488445,IMM THEATER,Japan,theatre building,,,,APAC,Wikidata,
Q11259945,IbaKira TV,Japan,website,,,,APAC,Wikidata,
Q1154043,Ichimura-za,Japan,theatre building,,,,APAC,Wikidata,
Q38276333,Iida Tokiwa Theatre,Japan,movie theater,,35.51368,137.82545,APAC,Wikidata,
Q55614302,Iizuka Daiichi Gymnasium,Japan,venue,,33.640083333,130.675972222,APAC,Wikidata_Clubs,http://www.city.iizuka.lg.jp/shisetsu/shisetsu/064.html
Q11551831,Ikeda City Satsukiyama Gymnasium,Japan,venue,,34.828333,135.428694,APAC,Wikidata_Clubs,http://www.satsukiyama-taiikukan.jp/
Q55640000,Imperial Japanese Army Toyama School Ground,Japan,venue,,,,APAC,Wikidata_Clubs,
Q994171,Imperial Theatre,Japan,theatre building,,35.676527777,139.76075,APAC,Wikidata,https://www.toho.co.jp/stage/teigeki/index.php
Q11287650,In dependent theatre,Japan,theatre building,,34.66136111,135.50691667,APAC,Wikidata,
Q109597004,In-NEWS,Japan,website,,,,APAC,Wikidata,
Q28691212,Ina Asahiza,Japan,movie theater,,35.83894444,137.96177778,APAC,Wikidata,
Q11596556,Inagi City General Gymnasium,Japan,venue,,35.631722,139.486083,APAC,Wikidata_Clubs,
Q11287521,Internet Hotline Center,Japan,website,,,,APAC,Wikidata,
Q24261949,Irasutoya,Japan,website,,,,APAC,Wikidata,
Q11586004,Ishikawa Prefectural Noh Theater,Japan,theatre building,,36.559444,136.663333,APAC,Wikidata,https://noh-theater.jp/
Q6080295,Ishikawa Sports Center,Japan,arena,5000,36.579368,136.598382,APAC,Wikidata_Premium,http://www.ishikawa-spc.jp/
Q11352665,Isshinji Theater Kura,Japan,theatre building,,34.65266667,135.51183333,APAC,Wikidata,http://isshinji.net/kura/
Q17193175,Itabashi Azusawa Gymnasium,Japan,venue,,35.778389,139.698333,APAC,Wikidata_Clubs,
Q11581358,Iwagin Stadium,Japan,stadium,4946,39.64791389,141.1375056,APAC,Wikidata_Premium,http://www.city.morioka.iwate.jp/kurashi/kokyoshisetsu/sports/1000915.html
Q11260113,Iwaki Green Field,Japan,stadium,5600,37.01727778,140.86433333,APAC,Wikidata_Premium,http://www.iwakicity-park.or.jp/greenfield/index.html
Q11475314,Iwanami Hall,Japan,movie theater,,35.695694,139.757722,APAC,Wikidata,
Q65265493,Iwate Morioka Stadium,Japan,stadium,4000,39.738666666,141.120888888,APAC,Wikidata_Premium,
Q8191829,Izumo Dome,Japan,arena,2500,35.38291667,132.7405,APAC,Wikidata_Premium,
Q11225111,J-STAGE,Japan,website,,,,APAC,Wikidata,
Q111539361,J-VILLAGE Stadium,Japan,stadium,5413,37.238833333,141.002611111,APAC,Wikidata_Premium,https://j-village.jp/stadium
Q24865903,JAIRO Cloud,Japan,website,,,,APAC,Wikidata,
Q11469670,JIT Recycle Ink Stadium,Japan,stadium,17000,35.622376,138.589756,APAC,Wikidata_Premium,http://www.kose-sp.pref.yamanashi.jp/kose_wdm/html/rikujyo/index.html
Q11226257,JR East Shiki Theatre Aki,Japan,theatre building,,35.656667,139.762028,APAC,Wikidata,https://www.shiki.jp/zh-tw/theatres/4024/
Q11226256,JR East Shiki Theatre Haru,Japan,theatre building,,35.656667,139.762028,APAC,Wikidata,https://www.shiki.jp/zh-cn/theatres/4023/
Q111961534,Japan Bloodstock Information System,Japan,website,,,,APAC,Wikidata,
Q44296661,Japan Forward,Japan,website,,,,APAC,Wikidata,
Q135273273,Japan Listed Company Search | J-LiC,Japan,website,,,,APAC,Wikidata,
Q21093526,Japanese Cinema Database,Japan,website,,,,APAC,Wikidata,
Q4409942,Jinbōchō Theater,Japan,theatre building,,35.695,139.76083333,APAC,Wikidata,
Q11226258,Jiyu Theatre,Japan,theatre building,,35.657444,139.761167,APAC,Wikidata,https://www.shiki.jp/zh-tw/theatres/4008/
Q6307722,Juliana's,Japan,nightclub,,35.64638889,139.75333333,APAC,Wikidata_Clubs,
Q11548615,K's denki Stadium Mito,Japan,stadium,12000,36.345278,140.412222,APAC,Wikidata_Premium,
Q116959954,KANSUUYA,Japan,website,,,,APAC,Wikidata,
Q3082575,Kabuki-za,Japan,theatre building,1964,35.669722222,139.768055555,APAC,Wikidata,https://www.kabukiweb.net/theatres/kabukiza/
Q22126229,KadoComi,Japan,website,,,,APAC,Wikidata,
Q11676476,Kagoshima Arena,Japan,arena,5700,31.601389,130.535403,APAC,Wikidata_Premium,http://kagoshima-arena.jp/
Q11419440,Kaho Gekijō,Japan,theatre building,,33.636489,130.687158,APAC,Wikidata,
Q11580967,Kairakuza,Japan,theatre building,,35.404389,136.921389,APAC,Wikidata,
Q6349581,Kakogawa Athletic Stadium,Japan,stadium,15275,34.808056,134.826111,APAC,Wikidata_Premium,
Q11398530,Kakogawa Municipal General Gymnasium,Japan,venue,,34.808278,134.822778,APAC,Wikidata_Clubs,http://www.kakogawa-sports.join-us.jp/arena/facility.html
Q55615623,Kami Arena,Japan,venue,,35.38397222,132.70655556,APAC,Wikidata_Clubs,http://www.hamayamakoen.jp/taikukan.html
Q65248021,Kamigo Clove Theatre,Japan,theatre building,,36.991666666,138.588333333,APAC,Wikidata,
Q11359415,Kamiyugi Park Athletic Stadium,Japan,venue,,35.61944444,139.37,APAC,Wikidata_Clubs,
Q11359413,Kamiyugi Park Baseball Field,Japan,venue,,35.61875,139.36611111,APAC,Wikidata_Clubs,
Q11589401,Kanagawa Arts Theatre,Japan,theatre building,,35.445472,139.646028,APAC,Wikidata,
Q11589021,Kanagawa Prefectural Sports Centre Stadium,Japan,stadium,14030,35.36166667,139.4763889,APAC,Wikidata_Premium,
Q6360900,Kanazawa Soccer Stadium,Japan,stadium,10444,36.596194444,136.657361111,APAC,Wikidata_Premium,https://www.kanazawa-stadium.jp
Q10851285,Karent,Japan,website,,,,APAC,Wikidata,
Q18336782,Kariya Nichigeki,Japan,movie theater,,34.984039,136.993255,APAC,Wikidata,
Q6380849,Karuizawa Kazakoshi Park Ice Arena,Japan,arena,1695,36.323847,138.59872,APAC,Wikidata_Premium,https://www.kazakoshi-park.jp/ice-arena/
Q11677157,Kashima General Gymnasium,Japan,venue,,35.52775,132.98666667,APAC,Wikidata_Clubs,http://www.kashima-hall.com/index.html
Q11479202,Kawagoe Scalaza,Japan,movie theater,,35.924083,139.484556,APAC,Wikidata,
Q6379494,Kawagoe Sports Park Athletic Stadium,Japan,stadium,8500,35.929167,139.529722,APAC,Wikidata_Premium,
Q11553676,Kawaguchiko Monkey Showman Theater,Japan,theatre building,,,,APAC,Wikidata,https://www.fuji-osaru.com/
Q1153182,Kawarazaki-za,Japan,theatre building,,,,APAC,Wikidata,
Q11478493,Kawasaki Eiga Theatre,Japan,theatre building,,,,APAC,Wikidata,
Q11478599,Kawasaki Ginseiza,Japan,theatre building,,35.528083333,139.697972222,APAC,Wikidata,
Q134587567,Kawasaki Noh Theater,Japan,theatre building,,35.527422,139.694798,APAC,Wikidata,
Q17225369,Kichijoji Odeon,Japan,movie theater,,,,APAC,Wikidata,
Q11296827,Kid Ailack Art Hall,Japan,theatre building,,,,APAC,Wikidata,
Q11647805,Kinbikan,Japan,theatre building,,,,APAC,Wikidata_Concerts,
Q28683236,Kinkero Theater,Japan,theatre building,,,,APAC,Wikidata,
Q11604957,Kinokuniya Hall,Japan,theatre building,418.0,35.692194,139.703,APAC,Wikidata_Concerts,https://www.kinokuniya.co.jp/c/store/hall.html
Q11604956,Kinokuniya Southern Theatre Takashimaya,Japan,theatre building,,35.685972,139.702444,APAC,Wikidata_Concerts,https://www.kinokuniya.co.jp/c/store/theatre.html
Q11648041,Kinryū-kan,Japan,theatre building,,,,APAC,Wikidata_Concerts,
Q11401062,Kitakyushu Performing Arts Center,Japan,theatre building,,33.885722,130.875278,APAC,Wikidata,http://q-geki.jp/
Q11404290,Kitano Bungei-za,Japan,theatre building,,36.6535,138.186972,APAC,Wikidata,http://kitanobungeiza.jp/
Q11590206,Kobe Art Center,Japan,theatre building,,34.70425,135.198361,APAC,Wikidata,http://www.art-center.jp/kobe/
Q11590142,Kobe Bunka Hall,Japan,theatre building,,34.68388889,135.17305556,APAC,Wikidata,
Q6424299,Kobe Central Stadium,Japan,stadium,13000,34.656744,135.168967,APAC,Wikidata_Premium,
Q278004,Kobe Green Arena,Japan,arena,6000,34.678224,135.074622,APAC,Wikidata_Premium,
Q11270346,Kojima Kikaku,Japan,theatre building,,35.691667,139.703722,APAC,Wikidata,
Q11458968,Kokura Showakan,Japan,movie theater,,33.881611,130.879917,APAC,Wikidata,
Q55616145,Komagatani Sports Park Gymnasium,Japan,venue,,34.91127778,135.18022222,APAC,Wikidata_Clubs,http://www.sanda-sports.jp/komagatani/
Q11462801,Komakishi Shiminkaikan Kominkan,Japan,theatre building,,,,APAC,Wikidata,
Q6428217,Komatsu Dome,Japan,arena,10000,36.33833333,136.43416667,APAC,Wikidata_Premium,https://komatsu-ccf.com/sports/komatsu_dome/
Q134598359,Kongo Noh Theatre,Japan,theatre building,,35.025837,135.759051,APAC,Wikidata,
Q11663254,Konohana Arena,Japan,venue,3327.0,34.98769444,138.4285556,APAC,Wikidata_Clubs,http://www.kusanagi-sportscomplex.jp/facility/gymnasium.html
Q6429656,Konosu Stadium,Japan,stadium,5000,36.068611,139.519722,APAC,Wikidata_Premium,
Q4409991,Konpira Grand Theatre,Japan,theatre building,,34.184633,133.818028,APAC,Wikidata,https://www.konpirakabuki.jp/index.html
Q6432318,Koriyama West Soccer Stadium,Japan,stadium,3722,37.395972,140.301222,APAC,Wikidata_Premium,
Q11302260,Kotobank,Japan,website,,,,APAC,Wikidata,
Q56276886,Kotobuki Arena Chikuma,Japan,venue,,36.5308457,138.1139131,APAC,Wikidata_Clubs,
Q60987259,Kotooka General Gymnasium,Japan,venue,,40.035305555,140.099111111,APAC,Wikidata_Clubs,
Q10878907,Kudan Kaikan,Japan,theatre building,,35.69444167,139.75123333,APAC,Wikidata,http://www.kudankaikan.or.jp/
Q6443426,Kumamoto Prefectural Gymnasium,Japan,arena,1480,32.814292,130.701717,APAC,Wikidata_Premium,http://www.kspa.or.jp/sougou_taiku/
Q582656,Kumamoto Prefectural Theater,Japan,theatre building,,32.8025,130.72833333,APAC,Wikidata,https://www.kengeki.or.jp
Q123246500,Kurosya Bunko,Japan,website,,,,APAC,Wikidata,
Q20044002,Kushiro City Cultural Hall,Japan,concert hall,1524,43.010277777,144.372777777,APAC,Wikidata_Premium,http://www.kushiro-bunka.or.jp/hall/
Q6447967,Kushiro Ice Arena,Japan,arena,3739,43.013262,144.360051,APAC,Wikidata_Premium,
Q11625339,Kyoko Shimbun News,Japan,website,,,,APAC,Wikidata,
Q24875829,Kyorakukan,Japan,theatre building,,36.61147222,140.64555556,APAC,Wikidata,
Q75699037,Kyoto Alti Hall,Japan,theatre building,,35.025416666,135.75875,APAC,Wikidata,
Q11374783,Kyoto Aquarena,Japan,stadium,2200,34.989869,135.715325,APAC,Wikidata_Premium,http://www.kyoto-aquarena.com
Q11374802,Kyoto Cinema,Japan,movie theater,,35.00311389,135.759225,APAC,Wikidata,
Q11375677,Kyoto Hanatsuki Theater,Japan,theatre building,,35.00534,135.76754,APAC,Wikidata,
Q11374778,Kyoto Minami Kaikan,Japan,movie theater,,34.979555555,135.751277777,APAC,Wikidata,
Q11374868,Kyoto Theater,Japan,theatre building,,34.985937,135.760162,APAC,Wikidata,https://www.kyoto-gekijo.com/
Q11486261,Kōrakukan,Japan,theatre building,,40.326558333,140.745166666,APAC,Wikidata,http://kosaka-mco.com/publics/index/51/
Q6455264,Kōriyama Kaiseizan Athletic Stadium,Japan,stadium,15474,37.397694,140.360417,APAC,Wikidata_Premium,http://www.city.koriyama.fukushima.jp/index.html
Q56349241,LEED Cafe,Japan,website,,,,APAC,Wikidata,
Q24865768,LINE LIVE,Japan,website,,,,APAC,Wikidata,
Q68511035,LUMINE 0,Japan,theatre building,,,,APAC,Wikidata,
Q11349103,LUMINE the YOSHIMOTO,Japan,theatre building,,35.68955556,139.70025,APAC,Wikidata,https://lumine.yoshimoto.co.jp/
Q11347050,Lazona Kawasaki Plazasol,Japan,theatre building,,35.533333,139.695833,APAC,Wikidata,https://www.plazasol.jp/
Q20856958,Line Music,Japan,website,,,,APAC,Wikidata,
Q61941406,LinkData.org,Japan,website,,,,APAC,Wikidata,
Q11230408,Lounge Lounge,Japan,website,,,,APAC,Wikidata,
Q114255510,MAGxiv,Japan,website,,,,APAC,Wikidata,
Q11341883,MIkado Theatre-Restaurant,Japan,theatre building,,,,APAC,Wikidata,
Q40040825,MOGRA,Japan,nightclub,170.0,35.702055555,139.774972222,APAC,Wikidata_Clubs,https://club-mogra.jp/
Q11343245,MOVIL,Japan,movie theater,,35.463694,139.618972,APAC,Wikidata,
Q6723564,Machida Athletic Stadium,Japan,stadium,8924,35.5925,139.438889,APAC,Wikidata_Premium,
Q11339368,Machipole Iwaki,Japan,movie theater,,37.057083,140.893639,APAC,Wikidata,
Q108857611,Madonna Stadium,Japan,stadium,2000,33.811413,132.748388,APAC,Wikidata_Premium,
Q6729074,Maebashi Athletic Stadium,Japan,stadium,1100,36.378361,139.161889,APAC,Wikidata_Premium,http://www15.wind.ne.jp/~m-sougohundoh/
Q5229878,Maihama Amphitheater,Japan,theatre building,,35.63258333,139.88922222,APAC,Wikidata,http://www.maihama-amphitheater.jp/
Q18339330,Maizuru Yachiyokan,Japan,movie theater,,,,APAC,Wikidata,
Q1886406,Makomanai Ice Arena,Japan,arena,10770,42.999444,141.347344,APAC,Wikidata_Premium,http://www.makomanai.com/icearena/
Q673240,Makomanai Open Stadium,Japan,stadium,17324,42.996388888,141.343055555,APAC,Wikidata_Premium,http://www.makomanai.com/openstadium/
Q55541383,Manga Cross,Japan,website,,,,APAC,Wikidata,
Q4604373,MangaGamer,Japan,website,,,,APAC,Wikidata,
Q52083773,Mangamura,Japan,website,,,,APAC,Wikidata,
Q8984484,Mapion,Japan,website,,,,APAC,Wikidata,
Q11521256,Maruyama Track & Field Stadium,Japan,stadium,12000,43.05272222,141.3041389,APAC,Wikidata_Premium,
Q11530722,Matsudo Kiryu Kaikan,Japan,theatre building,,35.78261111,139.89669444,APAC,Wikidata,
Q17230365,Matsudo Sanrio Theater,Japan,theatre building,,,,APAC,Wikidata,
Q11530708,Matsudo Tokiwakan,Japan,movie theater,,35.78547778,139.89852778,APAC,Wikidata,
Q11531683,Matsue Gymnasium,Japan,venue,,35.47247222,133.06591667,APAC,Wikidata_Clubs,http://www.so-tai.jp/
Q11531051,Matsumoto City Gymnasium,Japan,arena,6000,36.256771,137.980686,APAC,Wikidata_Premium,
Q24898315,Mecha Comic,Japan,website,,,,APAC,Wikidata,
Q54760023,Media Arts Database,Japan,website,,,,APAC,Wikidata,
Q11288566,Megalodon,Japan,website,,,,APAC,Wikidata,
Q11581616,Meguro Cinema,Japan,theatre building,,35.63488889,139.71463889,APAC,Wikidata,http://www.okura-movie.co.jp/meguro_cinema/now_showing.html
Q11581615,Meguro Kinema,Japan,theatre building,,,,APAC,Wikidata,
Q17218460,Meguro Persimmon Hall,Japan,venue,,35.621111,139.673056,APAC,Wikidata_Clubs,
Q18339552,Meien Cine Salon,Japan,theatre building,,35.170194,136.9155,APAC,Wikidata,
Q35134725,Meigaza Theater,Japan,movie theater,,35.6894875,139.6917064,APAC,Wikidata,
Q11343918,Metro Movie Theater,Japan,movie theater,,36.06352778,136.21652778,APAC,Wikidata,
Q35134607,Mihama 7 Plex,Japan,movie theater,,26.3153501,127.7571872,APAC,Wikidata,
Q11278806,Mikuni Bunka Miraikan,Japan,theatre building,,36.217556,136.147111,APAC,Wikidata,https://www.sakai-bunka.jp/miraikan/
Q17210872,Mikuni World Stadium Kitakyūshū,Japan,stadium,15300,33.891444,130.888861,APAC,Wikidata_Premium,http://www.kitakyushu-stadium.jp/
Q919524,Minami-za,Japan,theatre building,1086,35.003518,135.772305,APAC,Wikidata,http://www.shochiku.co.jp/play/minamiza/
Q28684197,Mirrativ,Japan,website,,,,APAC,Wikidata,
Q48746947,Misawa International Sports Center,Japan,venue,,40.681111111,141.399361111,APAC,Wikidata_Clubs,
Q4410400,Misono-za,Japan,theatre building,,35.16731111,136.89693056,APAC,Wikidata,http://www.misonoza.co.jp/
Q11548605,Mito Citizens Gymnasium,Japan,venue,,36.38033333,140.48255556,APAC,Wikidata_Clubs,
Q55641116,Mitsubishi Yowa Sugamo Ground,Japan,venue,,35.7347,139.7405,APAC,Wikidata_Clubs,http://www.yowakai.org/facility/sugamo/
Q11357327,Mitsukoshi Theater,Japan,theatre building,,35.68572222,139.77372222,APAC,Wikidata,https://www.mistore.jp/store/nihombashi/shops/experience/theater.html
Q489699,Miyagi Baseball Stadium,Japan,venue,23451.0,38.25620556,140.9025,APAC,Wikidata_Clubs,
Q11453449,Miyako Cinemarine,Japan,movie theater,,39.63216667,141.94188889,APAC,Wikidata,
Q22120535,Miyazaki Kinemakan,Japan,movie theater,,31.91378389,131.42337111,APAC,Wikidata,
Q11454461,Miyazaki Prefectural Arts Center,Japan,theatre building,,31.933111,131.41975,APAC,Wikidata,https://miyazaki-ac.jp/
Q11454391,Miyazaki Prefectural Gymnasium,Japan,venue,,31.917527777,131.434722222,APAC,Wikidata_Clubs,
Q6884513,Miyoshi Athletic Stadium,Japan,stadium,10000,34.780277777,132.870861111,APAC,Wikidata_Premium,
Q28692018,Mochizuki Kawanishiza,Japan,movie theater,,,,APAC,Wikidata,
Q11639517,Mokubakan,Japan,theatre building,,35.714472222,139.794833333,APAC,Wikidata_Concerts,https://www.shinohara-engeki.jp/mokubakan.html
Q3071006,Momotaro Arena,Japan,arena,11000,34.678301,133.92024,APAC,Wikidata_Premium,
Q1153719,Morita-za,Japan,theatre building,,,,APAC,Wikidata,
Q48762349,Moriyama Citizens Gymnasium,Japan,venue,,35.06494444,135.9795,APAC,Wikidata_Clubs,http://www.moriyama-s-p.com/sisetu/roomA/
Q28689527,Movie Theater in Toyohashi,Japan,movie theater,,,,APAC,Wikidata,
Q21093280,Movie Walker,Japan,website,,,,APAC,Wikidata,
Q11530687,Mtsudo Citizen's Theater,Japan,theatre building,,35.78505,139.897513888,APAC,Wikidata,https://www.morinohall21.com/gekijyou/
Q11415975,Muko Citizens Gymnasium,Japan,venue,,34.946111,135.712833,APAC,Wikidata_Clubs,http://www.mukosca.server-shared.com/contents11.html
Q11523051,Murakuni-za,Japan,theatre building,,35.419853,136.905575,APAC,Wikidata,
Q6940180,Musashino Municipal Athletic Stadium,Japan,stadium,5000,35.717441,139.568354,APAC,Wikidata_Premium,
Q131276099,Myna Portal,Japan,website,,,,APAC,Wikidata,
Q11234829,NEWS Post seven,Japan,website,,,,APAC,Wikidata,
Q10851853,NMB48 Theater,Japan,theatre building,,34.664611,135.503056,APAC,Wikidata,http://www.nmb48.com/theater/
Q6958432,Nagano Athletic Stadium,Japan,stadium,5200,36.658611,138.233333,APAC,Wikidata_Premium,
Q11652056,Nagaoka Municipal Auditorium,Japan,theatre building,,37.435277777,138.838611111,APAC,Wikidata_Concerts,
Q6958603,Nagasaki Athletic Stadium,Japan,stadium,15419,32.838611,130.039444,APAC,Wikidata_Premium,
Q5369853,Nagoya Baseball Stadium,Japan,stadium,4883,35.147354,136.88673,APAC,Wikidata_Premium,
Q18337609,Nagoya Cinémathèque,Japan,movie theater,,35.168806,136.935028,APAC,Wikidata,
Q11415005,Nagoya Citizens' Auditorium,Japan,theatre building,,35.145631,136.901833,APAC,Wikidata,https://nagoya-shimin.hall-info.jp/
